[{"id":"1","name":"Astoria-Ditmars Blvd (N,W)","lat":40.775036,"lng":-73.91203,"byHour":[801,366,345,429,1178,5054,13944,31739,40258,20212,12306,9566,8942,9768,13197,11711,11970,13218,10505,6626,4944,3539,3212,1528]},{"id":"10","name":"49 St (N,R,W)","lat":40.7599,"lng":-73.98414,"byHour":[5589,1882,893,523,360,758,2374,7314,13826,16175,14749,13794,14103,15222,18998,24982,36349,59005,43719,27260,21412,25462,24359,12592]},{"id":"100","name":"Hewes St (M,J)","lat":40.70687,"lng":-73.95343,"byHour":[360,152,87,110,212,374,1428,3166,6034,3599,2153,1810,1714,1630,2394,3185,3266,3446,3184,2179,1620,1103,898,686]},{"id":"101","name":"Marcy Av (M,J,Z)","lat":40.70836,"lng":-73.957756,"byHour":[1822,795,407,316,483,1435,4034,12925,23324,15019,8987,7832,8241,9908,12613,15200,16175,17765,14766,11346,7651,5508,4797,3930]},{"id":"103","name":"Bowery (J,Z)","lat":40.72028,"lng":-73.99391,"byHour":[1229,530,266,166,140,171,364,1107,2112,1732,1639,1874,2219,2601,3382,4001,4562,5394,4673,3929,3520,3495,3463,2884]},{"id":"107","name":"Broad St (J,Z)","lat":40.706474,"lng":-74.011055,"byHour":[906,273,106,88,100,178,895,1491,2539,1970,2077,2589,3589,4038,6501,9595,12498,18626,10687,5416,3472,2184,2022,1648]},{"id":"108","name":"Middle Village-Metropolitan Av (M)","lat":40.711395,"lng":-73.8896,"byHour":[79,88,98,146,541,2862,5700,9923,8145,4004,2607,2033,2086,2745,4562,4194,6194,3336,2608,1650,1175,786,628,249]},{"id":"109","name":"Fresh Pond Rd (M)","lat":40.706184,"lng":-73.895874,"byHour":[191,116,141,107,672,4339,9265,16431,13804,6740,4192,3397,3157,3619,3488,4145,3713,3678,2781,1880,1229,875,656,335]},{"id":"110","name":"Forest Av (M)","lat":40.704422,"lng":-73.903076,"byHour":[115,72,56,100,442,3926,7039,12426,11411,6067,3706,3009,2758,2820,3641,3261,2719,2974,2433,1698,1164,720,580,269]},{"id":"111","name":"Seneca Av (M)","lat":40.702763,"lng":-73.90774,"byHour":[120,49,52,131,311,2360,4058,7097,6897,3941,2274,1912,1643,1930,1952,1810,1743,1967,1775,1310,825,582,470,289]},{"id":"113","name":"Knickerbocker Av (M)","lat":40.698666,"lng":-73.91971,"byHour":[168,78,67,115,204,1702,3275,7955,10041,5334,3399,2765,2686,3024,3993,4166,3862,3757,3141,2215,1496,757,666,392]},{"id":"114","name":"Central Av (M)","lat":40.697857,"lng":-73.9274,"byHour":[279,153,115,85,276,1662,3132,7241,10922,6244,3408,3046,2760,2907,3957,3267,2998,3643,3033,2023,1241,937,747,561]},{"id":"118","name":"3 Av (L)","lat":40.73285,"lng":-73.98612,"byHour":[1570,567,245,165,133,196,782,2145,3523,2955,2639,3158,3452,4122,5635,9508,9586,11039,11026,9750,8651,7952,7239,4367]},{"id":"119","name":"1 Av (L)","lat":40.730953,"lng":-73.98163,"byHour":[2866,1007,553,329,398,1303,6724,21029,40764,25905,15947,15122,15612,18135,31981,34910,33307,39413,37108,30486,23452,19405,15612,9750]},{"id":"120","name":"Bedford Av (L)","lat":40.717304,"lng":-73.95687,"byHour":[4430,1824,776,525,686,2208,9118,31274,64241,46186,24435,21098,20956,22141,25937,31682,33698,40989,43727,35083,27356,23128,21905,14682]},{"id":"122","name":"Graham Av (L)","lat":40.714565,"lng":-73.94405,"byHour":[783,241,155,103,239,1435,4134,12667,24044,15433,7963,6548,5966,6142,7667,8100,8894,10540,9767,6991,4342,3089,4015,2944]},{"id":"123","name":"Grand St (L)","lat":40.711926,"lng":-73.94067,"byHour":[510,288,221,167,528,1594,4243,8550,11153,7309,4589,3965,4108,5089,12743,9314,9747,8002,6872,4854,3404,2706,3089,1520]},{"id":"124","name":"Montrose Av (L)","lat":40.70774,"lng":-73.93985,"byHour":[664,361,225,178,419,1693,3354,8190,15234,9303,5334,4694,4574,4859,7238,6448,6607,7564,6700,5014,3637,2908,2805,1604]},{"id":"125","name":"Morgan Av (L)","lat":40.706154,"lng":-73.93314,"byHour":[798,233,138,127,320,1415,3745,6936,11859,7990,4949,4635,4284,5375,6842,7432,7582,9096,7559,5392,4101,3176,3167,2096]},{"id":"126","name":"Jefferson St (L)","lat":40.706608,"lng":-73.92291,"byHour":[2403,970,612,401,808,2580,5318,11032,15098,9139,5827,5313,5661,6015,6926,7952,8247,9218,8135,6550,5027,4880,6760,4464]},{"id":"127","name":"DeKalb Av (L)","lat":40.70381,"lng":-73.91843,"byHour":[666,339,219,353,1246,5665,12363,23070,28894,17195,10446,9176,8196,8558,10081,10872,10223,11501,8995,6825,4591,3252,2246,1585]},{"id":"129","name":"Halsey St (L)","lat":40.695602,"lng":-73.90408,"byHour":[477,269,213,281,728,2991,6500,15318,16438,9773,6026,4804,4267,4728,5912,5714,5552,6351,5353,3695,2525,2189,2023,1401]},{"id":"13","name":"28 St (R,W)","lat":40.745495,"lng":-73.98869,"byHour":[2547,1014,452,175,163,240,1036,4008,8344,8251,6807,7081,7945,9276,9718,12457,16568,24235,20896,12983,10557,9030,7538,6425]},{"id":"130","name":"Wilson Av (L)","lat":40.688763,"lng":-73.904045,"byHour":[245,113,104,144,448,2121,4372,8897,9803,5553,3637,3133,2967,3229,4030,4213,3490,3628,3171,2207,1606,1147,1001,678]},{"id":"131","name":"Bushwick Av-Aberdeen St (L)","lat":40.68283,"lng":-73.90525,"byHour":[139,44,31,90,275,1172,2308,5756,5023,2885,1858,1689,1740,1901,2121,2801,2278,2345,2035,1680,1080,715,596,345]},{"id":"133","name":"Atlantic Av (L)","lat":40.675346,"lng":-73.9031,"byHour":[236,83,33,108,178,713,1899,4433,3229,1581,933,797,861,1130,1193,2348,2330,2762,2104,1136,678,431,362,331]},{"id":"134","name":"Sutter Av (L)","lat":40.66937,"lng":-73.90198,"byHour":[266,137,150,304,607,1906,3774,7137,5811,2801,1957,1763,1838,2204,2418,3232,3079,2640,1802,1318,969,839,700,391]},{"id":"135","name":"Livonia Av (L)","lat":40.66404,"lng":-73.90057,"byHour":[152,123,128,162,401,1243,3313,6237,4726,2509,1527,1340,1490,1921,2281,2776,2741,2848,2055,1792,1225,962,648,422]},{"id":"136","name":"New Lots Av (L)","lat":40.658733,"lng":-73.89923,"byHour":[265,137,172,303,962,2649,5454,8330,6057,3182,2183,1898,1996,2483,2660,2567,2926,2521,1780,1226,1150,952,658,413]},{"id":"137","name":"East 105 St (L)","lat":40.650574,"lng":-73.89948,"byHour":[309,95,88,159,441,1722,3691,6782,5261,2790,1649,1457,1469,1820,2007,2345,2476,2187,1468,1209,994,756,804,468]},{"id":"138","name":"Canarsie-Rockaway Pkwy (L)","lat":40.646652,"lng":-73.90185,"byHour":[153,129,118,324,728,1772,3524,5562,4611,2606,1767,1687,1768,1891,2224,2137,2284,2220,1652,1157,927,784,595,278]},{"id":"14","name":"23 St (R,W)","lat":40.741302,"lng":-73.98934,"byHour":[1890,506,291,151,216,371,1402,5658,12942,10730,9462,10845,13884,14869,21106,25205,31673,41068,33003,23124,15978,12130,7243,5071]},{"id":"141","name":"Park Pl (S)","lat":40.67477,"lng":-73.95763,"byHour":[75,32,10,39,98,251,925,2928,3523,1850,1262,1131,1105,1171,1691,2117,1934,2195,1559,1027,701,440,341,298]},{"id":"143","name":"Inwood-207 St (A)","lat":40.868073,"lng":-73.9199,"byHour":[650,347,291,373,1196,3650,8349,18617,18672,9761,5945,5345,5642,6507,6905,8054,7498,7085,5337,3439,2319,1966,1432,863]},{"id":"144","name":"Dyckman St (A)","lat":40.86549,"lng":-73.92727,"byHour":[231,150,121,139,639,2621,6083,12427,12633,7285,4543,4052,4053,4847,5618,6342,6107,5427,4061,2478,1829,1097,860,506]},{"id":"145","name":"190 St (A)","lat":40.85902,"lng":-73.93418,"byHour":[83,87,64,74,284,1486,3502,10341,10702,5911,3456,2886,3096,3216,3805,3774,4730,4482,2948,1491,931,592,405,346]},{"id":"146","name":"181 St (A)","lat":40.851696,"lng":-73.937965,"byHour":[177,81,50,150,491,2652,7565,20143,22105,12908,7964,6861,6264,6843,7460,7383,8310,8348,5983,3172,1918,1474,1037,439]},{"id":"147","name":"175 St (A)","lat":40.84739,"lng":-73.939705,"byHour":[421,224,201,212,1172,4693,10630,18730,20262,13518,8647,7486,7059,7611,8182,8458,9278,9785,7846,5096,3359,2247,1843,897]},{"id":"149","name":"163 St-Amsterdam Av (C)","lat":40.836014,"lng":-73.939896,"byHour":[149,84,118,225,825,2202,4771,8180,7646,4471,3142,2893,2680,3329,3803,3899,3537,3061,2396,1618,1063,877,695,342]},{"id":"150","name":"155 St (C)","lat":40.830517,"lng":-73.94151,"byHour":[120,51,66,100,389,940,2182,4925,4842,2788,1834,1737,1712,1923,2755,2645,1926,1905,1366,911,618,461,412,244]},{"id":"151","name":"145 St (A,C,B,D)","lat":40.824783,"lng":-73.944214,"byHour":[1114,658,523,983,2439,7344,17667,36592,38861,24417,16917,15969,17763,19218,21129,29291,26816,26340,23351,14072,9999,6975,4520,2755]},{"id":"152","name":"135 St (C,B)","lat":40.817894,"lng":-73.94765,"byHour":[292,183,122,177,249,740,2571,8041,8991,5757,4038,3829,4808,4896,8915,8818,8321,8231,6098,3768,2059,1147,804,498]},{"id":"153","name":"125 St (A,C,B,D)","lat":40.811108,"lng":-73.95235,"byHour":[2453,942,556,952,1599,4496,14407,32034,38815,24622,17782,17686,18175,20735,27268,34639,39384,41327,30678,21303,15289,11368,7971,4821]},{"id":"154","name":"116 St (C,B)","lat":40.805084,"lng":-73.95488,"byHour":[432,181,127,182,241,876,3366,11209,12507,7341,4990,4389,4490,4619,5977,7266,6649,7418,6220,4047,2861,1864,1444,936]},{"id":"155","name":"Cathedral Pkwy (110 St) (C,B)","lat":40.800602,"lng":-73.95816,"byHour":[472,170,152,139,285,898,3199,11419,15330,9542,6211,5498,5342,5811,6207,9104,8847,9612,8405,5180,3195,2117,1577,1182]},{"id":"156","name":"103 St (C,B)","lat":40.796093,"lng":-73.96146,"byHour":[218,73,51,65,207,627,2249,6954,9323,5750,3811,3492,3598,3481,3875,5099,5459,5474,4966,3047,2022,1234,741,510]},{"id":"157","name":"96 St (C,B)","lat":40.79164,"lng":-73.9647,"byHour":[476,117,60,63,109,321,2292,9384,15259,9730,6572,6352,6536,7182,9968,16656,18118,19155,14220,8248,4655,2563,1724,1281]},{"id":"158","name":"86 St (C,B)","lat":40.78587,"lng":-73.96892,"byHour":[477,153,57,64,69,537,2568,9959,19569,10622,7314,6757,7427,8466,11974,20872,21654,20538,16622,9571,6008,4065,2680,1551]},{"id":"159","name":"81 St-Museum of Natural History (C,B)","lat":40.781433,"lng":-73.972145,"byHour":[624,247,120,83,45,357,1530,5881,12325,7802,5355,6318,9414,12188,16336,21651,26150,30972,15869,9486,5977,3938,2896,2277]},{"id":"16","name":"8 St-NYU (R,W)","lat":40.730328,"lng":-73.99263,"byHour":[2313,774,454,234,243,441,1831,6707,18054,12498,8637,8555,11911,13824,15013,20927,25047,29618,28281,20103,17410,14752,9197,6250]},{"id":"160","name":"72 St (C,B)","lat":40.775593,"lng":-73.97641,"byHour":[480,156,66,43,66,165,1510,6220,10244,7928,6127,6536,7923,9380,11148,15116,18214,18481,16338,11422,6411,4780,3885,1534]},{"id":"162","name":"50 St (C,E)","lat":40.762455,"lng":-73.985985,"byHour":[3695,1450,784,739,605,1186,3821,12586,19324,17577,14635,13018,12868,15089,23294,29844,31944,37103,28060,20359,16695,18990,16324,10295]},{"id":"164","name":"34 St-Penn Station (A,C,E)","lat":40.75229,"lng":-73.99339,"byHour":[10112,3097,1420,989,1481,14551,40787,89370,121840,90144,56649,49814,47444,52240,57586,65869,82436,124235,101066,67473,49601,42700,32997,19914]},{"id":"165","name":"23 St (C,E)","lat":40.745907,"lng":-73.99804,"byHour":[1612,665,333,306,381,1029,3921,13351,25535,17513,12848,12559,13876,15029,20068,32853,32018,38427,34220,23231,18674,13997,8744,5004]},{"id":"167","name":"W 4 St-Wash Sq (A,C,E,B,D,F,M)","lat":40.732338,"lng":-74.000496,"byHour":[12594,5224,2531,1287,1031,1912,6570,16854,37674,25489,17148,17894,23555,29447,35454,54087,62278,70248,65123,54119,48203,50655,39234,29286]},{"id":"168","name":"Spring St (C,E)","lat":40.726227,"lng":-74.00374,"byHour":[946,371,198,115,103,363,1139,3710,9498,6773,5567,6510,8870,10454,14442,20913,24996,33270,27057,17830,11355,8072,5453,3692]},{"id":"169","name":"Canal St (A,C,E)","lat":40.720825,"lng":-74.005226,"byHour":[1932,726,369,212,214,582,1975,5529,8776,7030,7071,7851,9948,11382,15064,21562,32688,46417,36894,22994,14081,9582,6769,4603]},{"id":"17","name":"Prince St (R,W)","lat":40.72433,"lng":-73.9977,"byHour":[1327,523,299,191,128,187,478,1867,4428,4177,4105,6097,8278,10383,11914,14984,18390,23687,22190,17176,9509,6499,4641,3577]},{"id":"173","name":"High St (A,C)","lat":40.699337,"lng":-73.99053,"byHour":[468,160,106,51,77,258,1584,6445,12879,7592,4710,4971,5373,6299,7962,10852,12404,15468,12972,9182,7593,5218,3058,1447]},{"id":"175","name":"Hoyt-Schermerhorn Sts (A,C,G)","lat":40.688484,"lng":-73.985,"byHour":[1190,394,279,173,324,566,2470,7253,13098,10025,8280,8028,8822,8789,10685,15244,17403,21562,16443,11658,8569,6418,4829,4005]},{"id":"176","name":"Lafayette Av (C)","lat":40.68611,"lng":-73.973946,"byHour":[801,264,150,122,243,648,1773,4405,7361,5834,3502,3294,3721,4199,6432,8399,6930,7403,6642,4716,3709,3554,2894,3081]},{"id":"177","name":"Clinton-Washington Avs (C)","lat":40.68326,"lng":-73.965836,"byHour":[359,148,99,83,167,657,3018,10188,19206,12362,6241,5297,4989,4909,5423,7196,8280,10473,8198,4293,2610,2245,1639,996]},{"id":"179","name":"Nostrand Av (A,C)","lat":40.68044,"lng":-73.950424,"byHour":[970,406,365,369,900,3170,10191,25863,38214,25635,14948,12393,12340,12393,13464,16010,16314,18870,16222,10776,7424,5066,3851,1964]},{"id":"180","name":"Kingston-Throop Avs (C)","lat":40.67992,"lng":-73.94086,"byHour":[386,176,166,308,391,1551,4065,10460,14564,9425,5980,5231,5255,5519,6521,7090,6811,7005,5650,3848,2082,1400,1100,901]},{"id":"181","name":"Utica Av (A,C)","lat":40.679363,"lng":-73.93073,"byHour":[673,345,281,492,1475,3896,10552,23708,29161,17780,11265,9111,8478,9016,10172,10665,10598,11257,9732,7079,4977,4088,2964,1636]},{"id":"182","name":"Ralph Av (C)","lat":40.67882,"lng":-73.920784,"byHour":[219,187,115,190,779,1924,4950,10787,9983,5997,4144,3688,3415,4042,3858,4160,3899,3833,3252,2472,1713,1349,871,588]},{"id":"183","name":"Rockaway Av (C)","lat":40.67834,"lng":-73.91195,"byHour":[270,176,131,273,769,2572,5923,12643,10958,6343,4534,3996,3914,4484,5470,5214,4451,4163,3363,2321,1744,1378,967,621]},{"id":"185","name":"Liberty Av (C)","lat":40.67454,"lng":-73.896545,"byHour":[221,68,77,79,353,1407,2491,5157,3562,2217,1796,1415,1446,1799,2707,2820,2476,2532,1319,922,636,469,325,224]},{"id":"186","name":"Van Siclen Av (C)","lat":40.67271,"lng":-73.89036,"byHour":[129,75,93,188,724,1874,3698,6911,4848,2500,1692,1441,1456,1768,2171,2759,1627,1403,1041,756,580,610,376,189]},{"id":"187","name":"Shepherd Av (C)","lat":40.67413,"lng":-73.88075,"byHour":[142,107,96,233,568,2470,3842,6887,4645,2544,1823,1651,1604,1730,2139,1979,1800,1483,1074,817,499,519,427,226]},{"id":"188","name":"Euclid Av (A,C)","lat":40.675377,"lng":-73.87211,"byHour":[711,471,489,1273,3362,5626,13384,26016,19180,10192,7378,5368,6044,6702,7172,8326,6871,6150,3840,2882,2201,2347,1621,998]},{"id":"189","name":"Grant Av (A)","lat":40.677044,"lng":-73.86505,"byHour":[49,24,21,48,479,3412,7704,15212,11396,5778,4035,3236,2994,3748,3740,3703,3323,2834,2108,1469,1106,1021,584,328]},{"id":"190","name":"80 St (A)","lat":40.67937,"lng":-73.85899,"byHour":[33,27,22,51,471,3516,6786,12248,9251,5154,3453,2744,2405,2901,2625,2731,2308,1972,1488,1126,839,795,397,140]},{"id":"191","name":"88 St (A)","lat":40.679844,"lng":-73.85147,"byHour":[11,8,14,37,481,2579,5729,8846,6446,3352,2176,1645,1362,1684,1672,1396,1203,1015,807,575,434,339,188,76]},{"id":"192","name":"Rockaway Blvd (A)","lat":40.680428,"lng":-73.84386,"byHour":[273,222,154,232,1577,5807,11640,17989,13211,7132,4478,3876,3545,4630,5954,5505,5032,4653,3596,2640,2088,1580,1150,683]},{"id":"193","name":"104 St (A)","lat":40.68171,"lng":-73.837685,"byHour":[9,11,6,30,117,1674,4080,5403,3642,1799,1276,966,842,1129,1658,1145,955,781,559,372,336,257,163,88]},{"id":"194","name":"111 St (A)","lat":40.68433,"lng":-73.83216,"byHour":[11,5,19,30,186,2316,5467,7503,4702,2428,1471,1171,1241,1348,1071,1086,913,898,739,555,329,369,132,60]},{"id":"195","name":"Ozone Park-Lefferts Blvd (A)","lat":40.68595,"lng":-73.8258,"byHour":[86,63,79,108,474,8370,16512,19737,10933,5848,4266,3487,3484,3871,3300,3356,3422,3248,2592,1857,1564,1278,686,308]},{"id":"196","name":"Aqueduct Racetrack (A)","lat":40.672096,"lng":-73.83592,"byHour":[132,101,72,85,210,218,282,653,523,249,340,452,546,488,597,709,908,857,778,687,590,433,290,206]},{"id":"197","name":"Aqueduct-N Conduit Av (A)","lat":40.668236,"lng":-73.83406,"byHour":[89,41,36,42,337,875,1655,2547,1584,610,470,358,407,484,659,657,611,536,361,281,199,156,107,97]},{"id":"198","name":"Howard Beach-JFK Airport (A)","lat":40.660477,"lng":-73.8303,"byHour":[693,613,346,207,500,1398,3322,4935,4205,2616,2415,2709,2753,3212,4532,4560,4682,4255,3416,2866,3005,2134,2207,1530]},{"id":"199","name":"Broad Channel (A,S)","lat":40.608383,"lng":-73.815926,"byHour":[13,19,20,17,169,422,624,896,370,186,155,129,124,171,202,256,219,169,176,140,75,61,38,17]},{"id":"2","name":"Astoria Blvd (N,W)","lat":40.77026,"lng":-73.91785,"byHour":[567,213,154,241,802,3072,9084,22699,29638,16271,9601,7757,7337,7196,8284,9249,9371,10135,7952,5135,3401,2567,2008,1287]},{"id":"20","name":"City Hall (R,W)","lat":40.713284,"lng":-74.00698,"byHour":[259,102,30,71,40,237,491,2064,3609,2958,3008,3769,4502,4857,5727,9080,11962,14192,9027,5219,3608,1969,1528,866]},{"id":"200","name":"Beach 90 St (A,S)","lat":40.588036,"lng":-73.813644,"byHour":[34,28,23,97,173,554,1730,1998,712,455,414,345,486,482,564,652,683,765,619,488,351,198,63,52]},{"id":"201","name":"Beach 98 St (A,S)","lat":40.585308,"lng":-73.82056,"byHour":[29,4,9,42,185,286,920,981,451,291,215,236,342,437,765,541,463,463,349,234,183,98,37,16]},{"id":"202","name":"Beach 105 St (A,S)","lat":40.58321,"lng":-73.82756,"byHour":[8,4,14,18,50,184,555,662,206,121,89,113,192,208,555,604,413,383,274,279,301,114,66,17]},{"id":"203","name":"Rockaway Park-Beach 116 St (A,S)","lat":40.580902,"lng":-73.835594,"byHour":[126,82,77,161,273,603,1018,1361,650,479,458,485,527,542,613,732,884,724,653,510,316,248,226,165]},{"id":"204","name":"Beach 67 St (A)","lat":40.590927,"lng":-73.79692,"byHour":[73,64,151,200,799,2177,3505,5107,3077,1957,1484,1384,1262,1530,1752,1939,1854,1753,1425,1130,770,577,332,281]},{"id":"205","name":"Beach 60 St (A)","lat":40.592373,"lng":-73.78852,"byHour":[107,109,148,282,830,1757,3059,4238,2189,1310,1156,1054,1079,1137,1118,1226,1276,861,675,550,486,428,188,121]},{"id":"206","name":"Beach 44 St (A)","lat":40.59294,"lng":-73.77602,"byHour":[83,29,47,87,381,842,1414,2090,1007,540,463,410,422,511,473,613,488,451,284,322,224,242,95,134]},{"id":"207","name":"Beach 36 St (A)","lat":40.595398,"lng":-73.76817,"byHour":[23,14,19,46,290,883,1420,2013,1105,651,554,528,480,482,453,807,546,426,325,303,269,196,84,61]},{"id":"208","name":"Beach 25 St (A)","lat":40.600067,"lng":-73.76135,"byHour":[21,56,130,164,649,2129,2827,3986,2133,1159,834,799,935,1268,1710,1311,1078,669,516,427,414,345,232,44]},{"id":"209","name":"Far Rockaway-Mott Av (A)","lat":40.603996,"lng":-73.7554,"byHour":[461,279,291,505,1526,4497,7413,8579,4819,3173,2614,2469,3054,3189,3491,5144,5334,4870,3256,2347,1898,1352,837,671]},{"id":"210","name":"Norwood-205 St (D)","lat":40.87481,"lng":-73.87885,"byHour":[144,124,241,616,2070,4706,9238,17054,11835,5700,4125,3438,3270,4348,4986,5508,4614,4853,3023,1970,1413,1190,1009,557]},{"id":"211","name":"Bedford Park Blvd (B,D)","lat":40.873245,"lng":-73.88714,"byHour":[200,157,113,367,1199,3803,8809,13940,11944,5381,4085,3380,3387,4496,5445,6474,5485,4321,2900,1889,1519,1380,969,537]},{"id":"212","name":"Kingsbridge Rd (B,D)","lat":40.866978,"lng":-73.89351,"byHour":[135,112,156,427,1014,4003,7209,13397,11885,5002,3851,2974,2735,3819,4592,4747,3985,3118,2431,1865,1344,1174,545,366]},{"id":"213","name":"Fordham Rd (B,D)","lat":40.861298,"lng":-73.89775,"byHour":[396,221,203,520,1294,5438,10165,16188,14129,6659,5487,4657,4905,6098,6985,8109,8561,7864,4865,3594,2604,1992,1228,774]},{"id":"214","name":"182-183 Sts (B,D)","lat":40.856094,"lng":-73.90074,"byHour":[165,138,179,315,939,3391,5049,9449,6991,3628,2511,2286,2602,3230,3955,4479,3416,2649,1909,1353,1030,917,688,325]},{"id":"215","name":"Tremont Av (B,D)","lat":40.85041,"lng":-73.90523,"byHour":[274,228,220,487,1322,4493,8732,15721,13811,5914,3999,3493,3366,3922,4917,5750,5476,4817,3030,1813,1347,1232,981,533]},{"id":"216","name":"174-175 Sts (B,D)","lat":40.8459,"lng":-73.91013,"byHour":[171,66,134,256,785,2472,3756,7311,5833,3550,2674,2430,2264,2880,3445,3906,4308,4149,2179,1547,966,795,527,295]},{"id":"217","name":"170 St (B,D)","lat":40.839306,"lng":-73.9134,"byHour":[152,107,82,309,874,3327,6059,10404,8541,4489,3474,3040,2554,3350,4845,7448,4796,3449,2289,1427,1081,834,665,358]},{"id":"218","name":"167 St (B,D)","lat":40.83377,"lng":-73.91844,"byHour":[280,205,212,539,1551,5321,8303,14860,12108,7216,5327,4505,4510,5068,6254,6483,6334,5143,3244,2321,1573,1444,1170,683]},{"id":"22","name":"Rector St (R,W)","lat":40.70722,"lng":-74.01334,"byHour":[331,81,37,31,60,276,950,3241,6351,4969,3699,3559,4099,4289,5811,7484,9027,12357,8342,4302,2715,1775,1223,931]},{"id":"220","name":"155 St (B,D)","lat":40.830135,"lng":-73.93821,"byHour":[140,53,96,108,372,1578,3212,6460,4845,2677,1812,1599,1748,2264,2798,2480,2460,2103,1499,1315,949,707,506,338]},{"id":"221","name":"21 St-Queensbridge (F)","lat":40.754204,"lng":-73.94283,"byHour":[844,240,179,254,722,2464,6763,14112,17511,12534,8770,7294,6629,6865,8107,11414,14482,13417,9322,5974,3883,2745,1507,1197]},{"id":"222","name":"Roosevelt Island (F)","lat":40.759144,"lng":-73.95326,"byHour":[469,141,100,138,219,874,3253,13001,17405,11408,7591,6554,6608,7019,8040,9756,9830,10119,8857,6742,4828,2930,2195,1335]},{"id":"223","name":"Lexington Av/63 St (F,Q)","lat":40.76463,"lng":-73.96611,"byHour":[1921,665,322,242,427,1053,3200,10345,18196,13493,9665,11521,12608,14153,20280,29087,34742,41446,33070,22237,15875,10446,7936,5721]},{"id":"224","name":"57 St (F)","lat":40.763973,"lng":-73.97745,"byHour":[2462,735,248,144,287,458,1128,2655,4487,4989,5688,6799,8031,10313,13818,18724,24523,36362,29736,17215,10901,8893,8278,6840]},{"id":"225","name":"47-50 Sts-Rockefeller Ctr (B,D,F,M)","lat":40.758663,"lng":-73.98133,"byHour":[10836,2789,1291,676,795,1107,2948,6354,8331,11552,15128,19814,25920,32564,46090,67005,106380,192599,131968,67203,38072,26940,27140,17139]},{"id":"228","name":"23 St (F,M)","lat":40.742878,"lng":-73.99282,"byHour":[2495,869,428,292,272,778,3994,14356,32592,24112,14332,15051,17444,19421,24155,30777,39188,56117,48694,31662,21859,14713,9869,6529]},{"id":"231","name":"Grand St (B,D)","lat":40.718266,"lng":-73.99375,"byHour":[2150,791,457,312,411,1055,4198,12237,19230,14439,13109,14631,17300,20623,26525,34270,34486,42200,34454,22405,17821,14532,8456,5811]},{"id":"232","name":"2 Av (F)","lat":40.7234,"lng":-73.98994,"byHour":[3141,1218,928,513,731,912,3477,11211,22580,13816,8522,8260,8750,11064,13989,18285,19014,19570,18938,16091,14340,13413,12943,8850]},{"id":"234","name":"East Broadway (F)","lat":40.713715,"lng":-73.99017,"byHour":[1656,529,310,238,617,1455,4768,13755,19220,13623,9590,8950,9703,10486,15644,16583,19824,20906,16516,13474,10714,8482,6417,4672]},{"id":"235","name":"York St (F)","lat":40.701397,"lng":-73.98675,"byHour":[1205,452,195,94,261,738,2547,9186,14936,9898,6904,7901,9138,11190,13253,16783,19727,28426,23559,16512,13341,9333,6234,3391]},{"id":"236","name":"Bergen St (F,G)","lat":40.686146,"lng":-73.99086,"byHour":[615,271,180,139,251,980,3114,12494,21995,12955,7594,6792,6987,7429,11010,15672,14544,16785,14072,10013,6650,5130,4328,2167]},{"id":"237","name":"Carroll St (F,G)","lat":40.6803,"lng":-73.99505,"byHour":[405,154,68,75,173,1011,4612,18990,29806,15137,8384,6941,6679,7054,9532,16481,16657,17833,13748,7729,4822,3530,3095,1655]},{"id":"238","name":"Smith-9 Sts (F,G)","lat":40.67358,"lng":-73.99596,"byHour":[250,90,97,96,386,572,1877,4780,5620,3364,2365,2198,2693,3092,3598,5989,6803,7673,5669,3169,2195,1678,1396,681]},{"id":"240","name":"7 Av (F,G)","lat":40.66627,"lng":-73.98031,"byHour":[580,126,70,77,199,909,4495,19392,27695,13869,7961,6977,6850,7245,15031,15270,15306,17043,13333,7460,5285,3503,2213,1273]},{"id":"241","name":"15 St-Prospect Park (F,G)","lat":40.660366,"lng":-73.97949,"byHour":[249,101,57,58,216,887,3239,12235,16635,7499,4137,3528,3461,3615,5497,5615,6038,7135,6460,3440,2211,1754,1125,879]},{"id":"242","name":"Fort Hamilton Pkwy (F,G)","lat":40.650784,"lng":-73.97578,"byHour":[91,53,49,85,264,1178,4991,16421,17403,7970,4541,3682,3661,3514,4424,4588,5133,6273,5054,2366,1232,742,492,321]},{"id":"243","name":"Church Av (F,G)","lat":40.64404,"lng":-73.979675,"byHour":[522,388,310,502,1670,3670,9081,24070,20738,11069,7138,5889,5624,6145,6855,7062,7385,8671,6580,4349,3139,2218,1320,988]},{"id":"244","name":"Ditmas Av (F)","lat":40.63612,"lng":-73.97817,"byHour":[171,60,74,136,553,1547,4381,9768,7791,4300,2645,2421,2309,2543,3310,4134,4167,4042,2757,1743,1181,657,511,323]},{"id":"245","name":"18 Av (F)","lat":40.629753,"lng":-73.976974,"byHour":[109,44,111,97,418,1542,3304,8171,6156,3230,2261,1890,1954,2331,2937,2996,3440,4059,2895,1746,1074,675,388,219]},{"id":"246","name":"Avenue I (F)","lat":40.62532,"lng":-73.97613,"byHour":[83,48,21,20,99,404,855,2642,2457,1573,808,804,908,1391,2413,1993,2846,2357,1807,1248,749,437,350,231]},{"id":"247","name":"Bay Pkwy (F)","lat":40.62077,"lng":-73.975266,"byHour":[41,21,5,26,278,522,1232,2847,2453,1160,682,514,767,830,1045,1256,1401,1043,791,486,344,235,168,65]},{"id":"248","name":"Avenue N (F)","lat":40.61514,"lng":-73.9742,"byHour":[62,29,25,39,424,1571,3254,6984,6232,3115,1724,1120,1396,1448,1923,2373,2483,2951,1568,957,723,434,343,150]},{"id":"249","name":"Avenue P (F)","lat":40.608944,"lng":-73.97302,"byHour":[108,56,52,69,320,1552,3221,7180,5810,2939,1625,1122,1118,1258,1517,1671,1671,1875,1287,986,586,345,277,163]},{"id":"250","name":"Kings Hwy (F)","lat":40.603218,"lng":-73.97236,"byHour":[79,61,82,65,651,1887,4051,8729,7733,4156,2531,1863,2083,2545,3210,2797,3336,3432,2303,1607,982,583,403,246]},{"id":"251","name":"Avenue U (F)","lat":40.59606,"lng":-73.97336,"byHour":[68,56,63,92,334,1213,2351,5180,3821,2400,1224,982,960,1211,1670,1971,1927,2107,1416,825,545,435,223,123]},{"id":"252","name":"Avenue X (F)","lat":40.58962,"lng":-73.97425,"byHour":[98,56,61,82,529,1520,3202,6658,4489,2261,1485,1395,1492,1874,2173,2560,2251,2079,1311,742,686,646,387,421]},{"id":"253","name":"Neptune Av (F)","lat":40.581013,"lng":-73.97457,"byHour":[26,18,12,37,272,899,1588,3441,2405,1259,903,1023,1474,1613,2348,2639,1907,1528,898,611,560,255,137,106]},{"id":"254","name":"Jamaica-179 St (F)","lat":40.712646,"lng":-73.78381,"byHour":[707,532,838,1723,6605,18216,36943,54456,43273,22411,14436,11340,11289,12060,11396,11747,11383,10952,8358,5281,4405,4091,2697,1196]},{"id":"255","name":"169 St (F)","lat":40.71047,"lng":-73.7936,"byHour":[302,184,255,434,1510,5143,10262,15475,13500,8431,6485,5658,5837,7022,8786,9659,6978,6559,4557,3167,2472,1734,1079,550]},{"id":"256","name":"Parsons Blvd (F)","lat":40.707565,"lng":-73.80333,"byHour":[388,240,181,536,2087,5492,8345,14402,11693,7325,5198,4204,4817,6127,10157,6645,5615,5004,3875,2479,2100,1688,1129,540]},{"id":"257","name":"Sutphin Blvd (F)","lat":40.70546,"lng":-73.81071,"byHour":[293,142,145,339,1091,3790,6003,9745,7575,4427,3602,3183,3623,3634,4096,3985,3799,3334,2286,1712,1272,1027,623,415]},{"id":"258","name":"Briarwood (E,F)","lat":40.70918,"lng":-73.82057,"byHour":[165,104,196,294,882,3126,6831,12192,12339,6324,4231,3415,3388,4101,7233,3790,3805,3529,2555,1539,1048,905,742,312]},{"id":"259","name":"Kew Gardens-Union Tpke (E,F)","lat":40.71444,"lng":-73.83101,"byHour":[1401,703,572,1017,3747,11460,28839,50579,49790,28775,20017,16837,15623,16317,16565,18992,21115,24500,14847,9294,5776,4506,3198,2265]},{"id":"26","name":"DeKalb Av (B,Q,R)","lat":40.690636,"lng":-73.98183,"byHour":[1985,727,402,333,824,2626,8044,19088,34992,23954,15029,14670,16129,18210,23644,44385,36758,37670,27680,19616,15246,9951,8085,6516]},{"id":"260","name":"75 Av (E,F)","lat":40.71833,"lng":-73.837326,"byHour":[132,78,76,117,272,842,3067,6907,9117,4547,2862,2117,2122,2148,2173,2571,2768,3483,2242,1343,947,675,591,290]},{"id":"261","name":"Forest Hills-71 Av (E,F,M,R)","lat":40.72169,"lng":-73.84452,"byHour":[1227,476,358,766,1868,9495,24776,51550,58983,33038,21010,18288,18146,20099,21360,22467,24940,26978,19737,13534,9873,9437,16067,3558]},{"id":"262","name":"67 Av (M,R)","lat":40.726524,"lng":-73.85272,"byHour":[215,89,90,171,747,2933,9142,19857,20027,9705,6191,5077,4717,7057,7433,6375,8487,6072,4481,2879,1679,1107,854,662]},{"id":"263","name":"63 Dr-Rego Park (M,R)","lat":40.729847,"lng":-73.8616,"byHour":[414,207,213,357,1268,5507,14239,28014,30395,16838,11525,9795,9694,10261,11392,12164,11703,12691,9229,6137,4529,2869,1859,1121]},{"id":"264","name":"Woodhaven Blvd (M,R)","lat":40.733105,"lng":-73.86923,"byHour":[558,236,259,569,2330,11554,23592,39724,36953,21079,14232,12174,12548,14383,14979,16458,16827,16655,12424,8755,6822,5075,2697,1664]},{"id":"265","name":"Grand Av-Newtown (M,R)","lat":40.737015,"lng":-73.87722,"byHour":[342,281,297,534,2205,11127,23798,42710,41576,24397,16585,11524,10352,11116,13630,15798,12479,11370,8598,5543,3944,2710,1692,1108]},{"id":"266","name":"Elmhurst Av (M,R)","lat":40.742455,"lng":-73.88202,"byHour":[279,167,155,323,1085,6761,15838,29220,27137,18175,14648,8769,7408,8085,10035,9481,9473,7445,6353,4390,2678,1840,1192,804]},{"id":"268","name":"65 St (M,R)","lat":40.74967,"lng":-73.89845,"byHour":[96,52,54,118,389,2212,4524,8094,7127,4064,3150,2131,1974,2015,2674,2921,2594,2540,2529,1357,1023,535,469,286]},{"id":"269","name":"Northern Blvd (M,R)","lat":40.752884,"lng":-73.906006,"byHour":[189,76,113,291,563,4610,8754,14250,14543,7713,5529,4091,3760,4250,5201,6098,5770,6076,4449,2286,1550,1104,843,626]},{"id":"270","name":"46 St (M,R)","lat":40.756313,"lng":-73.91333,"byHour":[237,140,118,81,450,2351,6104,13115,16954,8730,5438,4360,3967,4720,9003,6881,5812,5681,4863,2953,2091,1579,1298,525]},{"id":"271","name":"Steinway St (M,R)","lat":40.756878,"lng":-73.92074,"byHour":[974,425,348,329,634,2877,8030,17922,25300,13054,8644,7775,7306,8060,9620,13347,12664,13776,12588,8486,6077,4483,3921,2181]},{"id":"272","name":"36 St (M,R)","lat":40.75204,"lng":-73.92878,"byHour":[221,95,34,54,95,505,1240,2656,4382,3235,2613,2620,2563,2677,4108,4723,6331,7297,4679,2280,1271,965,870,702]},{"id":"273","name":"Queens Plaza (E,M,R)","lat":40.748974,"lng":-73.93724,"byHour":[1019,330,263,339,603,1909,5632,15238,28853,21613,14631,13762,13895,15452,22716,36077,31154,30435,19063,11578,8170,5925,3638,1892]},{"id":"276","name":"5 Av/53 St (E,M)","lat":40.760166,"lng":-73.97523,"byHour":[866,194,66,66,87,123,638,1145,2222,3300,4729,7157,9939,13405,19115,26652,43866,73385,51083,23347,10864,4989,3200,1785]},{"id":"277","name":"7 Av (E,B,D)","lat":40.762863,"lng":-73.981636,"byHour":[3204,1026,425,318,410,683,1887,4346,8355,9339,8824,8653,9680,11332,17453,23104,31363,46658,31883,19294,12311,12083,9511,6568]},{"id":"278","name":"Jamaica Center-Parsons/Archer (E,J,Z)","lat":40.70215,"lng":-73.80111,"byHour":[1667,1119,1085,2042,7119,25210,48419,64220,49678,26489,19888,16808,20757,21596,21334,27253,28399,27881,20625,12003,11161,8464,5405,2872]},{"id":"279","name":"Sutphin Blvd-Archer Av-JFK Airport (E,J,Z)","lat":40.700485,"lng":-73.80797,"byHour":[4356,2309,1455,1392,3767,14912,34213,47911,42927,26757,21177,19402,19542,21927,25886,31094,30839,32071,24968,17501,14188,12137,9812,8048]},{"id":"28","name":"Union St (R)","lat":40.677315,"lng":-73.98311,"byHour":[403,170,84,105,129,839,2896,9844,15931,8454,4760,4261,4211,4557,6047,10822,9777,10162,8274,5490,4034,3587,2993,1642]},{"id":"280","name":"Jamaica-Van Wyck (E)","lat":40.702564,"lng":-73.81686,"byHour":[272,86,112,269,1091,3548,6188,10114,7305,4557,3213,2895,3038,3118,3521,4729,6443,5491,2842,2294,1356,951,537,661]},{"id":"282","name":"21 St (G)","lat":40.744064,"lng":-73.94972,"byHour":[141,49,29,24,68,158,641,1595,1528,1015,743,661,807,1067,1230,2264,3544,3796,3258,1895,1309,1097,677,392]},{"id":"283","name":"Greenpoint Av (G)","lat":40.731354,"lng":-73.95445,"byHour":[604,213,124,109,181,1200,3814,11806,18884,12410,7362,6278,6322,7120,7779,10793,12218,13985,13074,8197,5683,4489,3017,2009]},{"id":"284","name":"Nassau Av (G)","lat":40.724636,"lng":-73.95128,"byHour":[1044,390,178,107,270,1046,3549,11123,17950,9728,5517,4994,5169,5903,7253,9045,10948,14263,12663,8717,6924,5720,4249,3198]},{"id":"286","name":"Broadway (G)","lat":40.706093,"lng":-73.95031,"byHour":[318,139,116,134,195,1202,2987,5863,7219,4066,2645,2319,2515,2854,5858,4913,5252,6015,4880,3518,2413,1523,1197,810]},{"id":"287","name":"Flushing Av (G)","lat":40.70038,"lng":-73.95023,"byHour":[218,89,81,104,155,514,1577,3136,3675,2010,1657,1484,1808,2239,3676,3974,5028,5319,4077,2841,1741,1036,521,411]},{"id":"288","name":"Myrtle-Willoughby Avs (G)","lat":40.69457,"lng":-73.94904,"byHour":[197,92,58,127,298,1395,3830,8371,11617,7159,4234,3633,3516,3876,4090,4402,5319,5787,4476,2903,1765,1106,658,499]},{"id":"289","name":"Bedford-Nostrand Avs (G)","lat":40.68963,"lng":-73.95352,"byHour":[523,252,175,210,462,1526,4662,13021,19753,12325,7223,6216,5772,5949,6286,6908,7587,9767,8479,5833,3196,1994,1839,1231]},{"id":"290","name":"Classon Av (G)","lat":40.688873,"lng":-73.96007,"byHour":[203,102,87,120,274,607,2347,8294,12516,7521,3874,3059,3152,3591,4188,4477,5323,6499,5783,3438,2291,1515,1126,707]},{"id":"291","name":"Clinton-Washington Avs (G)","lat":40.688087,"lng":-73.96684,"byHour":[279,71,38,29,116,397,1865,7482,10436,5897,3388,3055,3543,3823,4692,5290,6820,8254,7289,4284,2916,2159,1469,860]},{"id":"292","name":"Fulton St (G)","lat":40.68712,"lng":-73.97537,"byHour":[436,135,90,84,160,456,2506,5639,5847,3793,2514,2557,3013,4084,10783,16012,8571,8994,7466,5243,4381,4228,2585,2473]},{"id":"293","name":"Van Cortlandt Park-242 St (1)","lat":40.889248,"lng":-73.89858,"byHour":[223,106,134,206,933,5511,10540,17429,12660,6508,4280,3780,3687,4229,4701,6430,6172,7799,5594,2790,2015,1460,935,709]},{"id":"294","name":"238 St (1)","lat":40.884666,"lng":-73.90087,"byHour":[140,72,77,183,800,2648,4957,11764,9340,4413,3204,2615,2512,3066,3368,3575,3752,3397,2462,1634,1286,1019,630,393]},{"id":"295","name":"231 St (1)","lat":40.878857,"lng":-73.90483,"byHour":[231,118,140,327,1454,4233,9137,18016,15997,8402,6158,5515,5472,6244,7145,8492,7932,7621,5522,3754,2787,2007,1171,741]},{"id":"296","name":"Marble Hill-225 St (1)","lat":40.87456,"lng":-73.90983,"byHour":[178,71,130,209,866,2545,4872,11151,8732,4208,3228,2785,2935,3475,3972,5450,4784,4145,3333,2241,1760,1291,891,467]},{"id":"297","name":"215 St (1)","lat":40.869446,"lng":-73.915276,"byHour":[122,89,54,90,173,394,1333,5779,2930,1814,1589,1726,1930,2054,2124,3828,3163,2899,1869,1356,1004,1190,626,379]},{"id":"298","name":"207 St (1)","lat":40.86462,"lng":-73.91882,"byHour":[424,221,170,299,946,2616,5126,10504,9367,5116,3925,3624,3552,4402,6122,8388,6447,5346,4448,3049,2205,1668,1540,719]},{"id":"299","name":"Dyckman St (1)","lat":40.86053,"lng":-73.92554,"byHour":[403,267,219,356,1237,3196,6044,13760,12281,6655,4956,4423,4621,5256,6798,6654,6688,5602,4475,3398,2101,1560,1326,762]},{"id":"3","name":"30 Av (N,W)","lat":40.76678,"lng":-73.92148,"byHour":[530,293,198,246,1128,3725,10575,26656,37159,20533,11646,9176,8631,8908,12115,12244,11784,12852,10328,6235,4049,2808,2089,1384]},{"id":"30","name":"Prospect Av (R)","lat":40.665413,"lng":-73.992874,"byHour":[254,111,92,93,250,1215,3556,10115,15774,7293,4001,3233,3175,3539,5500,7059,5848,7692,5939,3310,1962,1354,1048,613]},{"id":"300","name":"191 St (1)","lat":40.855225,"lng":-73.92941,"byHour":[219,139,278,384,995,4175,7690,16741,13904,7689,5236,4901,5034,5895,10454,8762,6566,5801,4580,2881,2124,1405,1014,933]},{"id":"301","name":"181 St (1)","lat":40.849506,"lng":-73.93359,"byHour":[512,348,212,433,1502,4802,8781,20454,18336,10318,8347,8263,7887,8887,10052,10687,10143,10088,7792,5181,3750,2312,1779,1295]},{"id":"303","name":"157 St (1)","lat":40.83404,"lng":-73.94489,"byHour":[457,191,231,437,1543,4372,8620,18158,17705,11211,8448,7394,7117,7839,9104,9894,9346,9176,7201,4728,3232,2316,1787,1021]},{"id":"304","name":"145 St (1)","lat":40.82655,"lng":-73.95036,"byHour":[589,329,261,476,1288,4120,7566,16189,16120,10491,7821,7192,6722,7267,8420,8343,7958,8454,7091,4720,3580,2579,2028,1203]},{"id":"305","name":"137 St-City College (1)","lat":40.822006,"lng":-73.953674,"byHour":[737,357,317,521,1577,4456,8441,18910,21836,13958,10063,9347,10959,11681,12506,17800,14079,14066,12091,7853,5028,3137,2198,1576]},{"id":"306","name":"125 St (1)","lat":40.815582,"lng":-73.958374,"byHour":[923,327,162,208,337,1316,3109,7821,10622,6809,5947,5721,8270,8127,8872,11239,13549,19605,12338,9791,6556,6968,2965,1667]},{"id":"307","name":"116 St-Columbia University (1)","lat":40.80772,"lng":-73.96411,"byHour":[1600,364,129,115,93,474,1377,5754,8693,7072,7621,10469,12995,15102,18691,22625,33751,40110,29903,22987,20955,12479,7895,3936]},{"id":"308","name":"Cathedral Pkwy (110 St) (1)","lat":40.803967,"lng":-73.96685,"byHour":[1021,343,192,159,277,828,3096,11020,19009,11220,8840,8561,9425,10134,12341,18086,18328,19286,16173,11320,8172,6038,4348,3274]},{"id":"309","name":"103 St (1)","lat":40.799446,"lng":-73.968376,"byHour":[748,171,176,202,468,1291,4149,15108,23786,15437,11153,9694,9559,9951,9987,12514,12979,14575,13294,9468,7803,4696,3379,1975]},{"id":"31","name":"25 St (R)","lat":40.660397,"lng":-73.99809,"byHour":[197,77,96,73,293,962,2290,5643,7221,4113,2696,2381,2208,2349,3246,4281,4509,5477,3614,2061,1392,949,704,454]},{"id":"310","name":"96 St (1,2,3)","lat":40.79392,"lng":-73.97232,"byHour":[2375,698,403,444,1022,3154,11620,38115,69256,42694,27806,24929,25232,25798,30760,43339,44379,47159,40224,26044,17655,13143,9435,6037]},{"id":"311","name":"86 St (1)","lat":40.788643,"lng":-73.97622,"byHour":[1420,400,143,113,279,1006,4502,17229,29489,18291,11764,10780,11988,12271,15743,25120,25134,25914,20971,14040,10421,8206,6159,3643]},{"id":"312","name":"79 St (1)","lat":40.783936,"lng":-73.97992,"byHour":[995,292,144,121,179,675,2722,11497,23184,15670,10864,9877,10482,10853,13306,19216,22694,22935,20006,13217,8683,7300,4763,2908]},{"id":"313","name":"72 St (1,2,3)","lat":40.778454,"lng":-73.98197,"byHour":[2884,855,420,296,418,1823,8456,31866,61860,40677,25801,24182,25256,28143,36106,46590,55507,57935,53812,37286,27525,21774,19565,11279]},{"id":"314","name":"66 St-Lincoln Center (1)","lat":40.77344,"lng":-73.98221,"byHour":[1693,380,131,110,219,822,2516,10312,20577,13902,10401,11087,12366,14238,26488,42058,34038,36707,27720,18920,13926,17098,12016,5046]},{"id":"316","name":"50 St (1)","lat":40.761726,"lng":-73.98385,"byHour":[5951,1987,849,507,482,824,1807,6615,13531,12807,11599,11095,11914,13847,19368,25575,35866,58113,40257,24941,17723,21173,21081,11481]},{"id":"318","name":"34 St-Penn Station (1,2,3)","lat":40.750374,"lng":-73.99106,"byHour":[13105,3432,1763,1150,1911,17238,47718,110986,136040,91679,47689,41663,39481,44203,46931,53281,65793,93774,75443,52729,40241,36940,35406,26642]},{"id":"319","name":"28 St (1)","lat":40.747215,"lng":-73.99336,"byHour":[1804,620,313,185,272,411,1408,5036,11379,11163,9244,9138,10258,10098,11485,14441,18944,26781,21881,12876,10455,9360,6011,3973]},{"id":"32","name":"36 St (D,N,R)","lat":40.655144,"lng":-74.00355,"byHour":[1111,452,387,522,1597,3790,9391,18957,23289,13786,10254,8575,8384,11366,15829,22951,21530,31928,21081,10866,6427,4608,2978,2324]},{"id":"320","name":"23 St (1)","lat":40.74408,"lng":-73.99566,"byHour":[1692,683,352,195,235,594,1746,6595,13737,10532,8034,7681,8922,9797,12604,18018,18301,21811,20725,14567,10636,8699,6337,4463]},{"id":"321","name":"18 St (1)","lat":40.74104,"lng":-73.99787,"byHour":[821,345,180,135,152,271,834,3552,8119,5722,3989,4006,4918,6004,8220,11275,11104,14376,12109,8213,5493,4514,3364,1990]},{"id":"323","name":"Christopher St-Sheridan Sq (1)","lat":40.73342,"lng":-74.00291,"byHour":[3194,1889,951,422,317,465,1449,5286,13984,9140,5545,5447,6602,7672,9656,12794,13977,14327,13425,11589,10744,10657,9637,7324]},{"id":"324","name":"Houston St (1)","lat":40.728252,"lng":-74.00536,"byHour":[2085,708,349,237,148,310,909,4108,8457,7376,5987,6186,7499,9122,13768,21548,27949,38130,22239,12983,9154,7795,7452,4665]},{"id":"325","name":"Canal St (1)","lat":40.722855,"lng":-74.00628,"byHour":[1064,379,214,117,65,107,500,1831,3279,2624,2415,2731,3251,3465,4463,5913,9050,14597,10254,5606,3605,2685,2370,2126]},{"id":"326","name":"Franklin St (1)","lat":40.71932,"lng":-74.00689,"byHour":[637,247,142,89,107,172,720,2867,5427,3691,3668,3813,4411,4542,5283,7547,10534,14480,10356,6455,4107,3547,2471,1643]},{"id":"327","name":"Chambers St (1,2,3)","lat":40.715477,"lng":-74.00927,"byHour":[1538,448,174,111,247,413,2162,9335,14857,10024,8965,10156,12773,15724,22333,38293,37590,49549,36971,22235,14066,8465,7097,3805]},{"id":"328","name":"WTC Cortlandt (1)","lat":40.711834,"lng":-74.01219,"byHour":[1345,518,234,199,230,1351,4516,10888,20311,14655,8034,8313,9265,10355,12342,16338,24094,34510,22621,12597,7686,4726,3583,2199]},{"id":"329","name":"Rector St (1)","lat":40.70751,"lng":-74.01379,"byHour":[673,171,109,76,131,497,1870,6409,11417,8511,5278,5189,4994,5366,7503,9903,11109,13818,10281,5640,3812,2456,1630,1203]},{"id":"33","name":"45 St (R)","lat":40.648937,"lng":-74.01001,"byHour":[199,153,154,285,1030,3984,8465,17750,16601,8460,6005,4449,4548,5283,6025,6013,6106,8081,5771,3921,2415,1788,1165,528]},{"id":"333","name":"Wall St (2,3)","lat":40.70682,"lng":-74.0091,"byHour":[1432,289,133,53,118,469,3011,9544,18337,11290,8239,8579,9466,11390,15555,25430,40417,55814,33453,16788,10504,7366,6077,3501]},{"id":"334","name":"Clark St (2,3)","lat":40.697468,"lng":-73.99309,"byHour":[423,111,38,25,68,460,1736,6815,14153,9313,5601,4893,5015,5188,5753,6868,8315,9361,8430,6189,4861,3963,3089,1697]},{"id":"336","name":"Hoyt St (2,3)","lat":40.690544,"lng":-73.98506,"byHour":[686,164,112,70,141,431,1234,4215,8701,5940,4697,5293,6338,7342,8699,13317,14549,16600,11504,7926,6245,4318,2110,1606]},{"id":"337","name":"Nevins St (2,3,4,5)","lat":40.688248,"lng":-73.98049,"byHour":[942,294,196,220,302,806,3264,8599,15043,9869,6132,6249,6773,7192,9271,17723,15176,15778,11311,7902,5917,4677,3485,3189]},{"id":"339","name":"Bergen St (2,3)","lat":40.68083,"lng":-73.9751,"byHour":[501,112,61,62,94,562,1267,6005,12623,7865,3717,2845,2788,2842,4154,4380,4017,5363,4693,3190,2211,2193,2190,2182]},{"id":"34","name":"53 St (R)","lat":40.64507,"lng":-74.01403,"byHour":[285,165,203,347,1618,4305,9675,20366,17452,9566,6775,5099,5112,6004,6742,7309,8229,9013,6268,4217,2705,1790,1353,1047]},{"id":"340","name":"Grand Army Plaza (2,3)","lat":40.675236,"lng":-73.97105,"byHour":[371,99,103,82,184,772,2467,10094,18526,10560,5253,4612,4665,5043,6638,9069,9345,10544,9396,5569,3444,2374,1519,994]},{"id":"341","name":"Eastern Pkwy-Brooklyn Museum (2,3)","lat":40.671986,"lng":-73.96438,"byHour":[387,141,77,73,206,551,1894,6111,10006,6012,3161,2800,2907,3132,3813,4843,5063,5657,4121,2630,1915,1161,912,502]},{"id":"343","name":"Nostrand Av (3)","lat":40.669846,"lng":-73.95046,"byHour":[221,130,100,165,369,1267,1801,5410,6870,4152,2527,2258,2397,2871,3424,4317,4637,4691,3440,2362,1568,1195,799,547]},{"id":"344","name":"Kingston Av (3)","lat":40.6694,"lng":-73.94216,"byHour":[283,142,168,169,495,1451,2986,7126,8188,5470,3762,3316,4085,4495,4223,4532,4754,5402,3956,2686,1680,965,697,437]},{"id":"345","name":"Crown Hts-Utica Av (3,4)","lat":40.668896,"lng":-73.932945,"byHour":[954,502,476,1231,4335,13399,29192,56225,55774,30487,19186,16195,16367,18605,17513,18873,18847,17395,14703,11175,7189,6195,4120,2036]},{"id":"346","name":"Sutter Av-Rutland Rd (3)","lat":40.66472,"lng":-73.92261,"byHour":[288,171,231,408,1317,4225,9306,16426,11920,6582,4571,4194,4137,4924,5446,5108,4950,4254,3015,2558,1798,1581,1166,672]},{"id":"347","name":"Saratoga Av (3)","lat":40.661453,"lng":-73.91633,"byHour":[278,126,130,293,1053,4107,7732,12536,8940,4693,3003,2591,2749,3197,3383,3110,2983,2999,2130,1418,1204,979,748,419]},{"id":"348","name":"Rockaway Av (3)","lat":40.662548,"lng":-73.90894,"byHour":[272,152,188,270,983,2634,5589,12195,9040,4836,3580,2985,3241,4035,4158,5392,4780,3498,2523,1953,1364,1350,959,442]},{"id":"349","name":"Junius St (3)","lat":40.663513,"lng":-73.90245,"byHour":[211,131,71,112,209,790,2312,4888,4087,2420,1584,1451,1573,2017,2110,2869,3340,2442,1814,1262,933,728,649,429]},{"id":"35","name":"59 St (N,R)","lat":40.64136,"lng":-74.01788,"byHour":[651,339,219,507,1814,5777,17573,30446,28347,15280,10259,8290,7800,8862,10655,11488,13393,15015,9708,5887,3547,2257,1442,1134]},{"id":"350","name":"Pennsylvania Av (3)","lat":40.664635,"lng":-73.8949,"byHour":[279,90,104,150,878,2588,4711,8415,6160,3484,2522,2160,2501,3292,4231,4127,3598,2661,2050,1476,1190,850,589,477]},{"id":"351","name":"Van Siclen Av (3)","lat":40.665447,"lng":-73.8894,"byHour":[136,54,82,119,438,1902,3505,6418,4401,2342,1589,1427,1485,1625,1926,1812,1496,1222,946,748,638,527,476,233]},{"id":"352","name":"New Lots Av (3)","lat":40.666237,"lng":-73.88408,"byHour":[490,242,215,546,1787,4076,8016,13851,8990,4867,3373,2993,3108,3806,3814,4041,3654,3266,2147,1869,1350,1171,1083,1103]},{"id":"353","name":"President St-Medgar Evers College (2,5)","lat":40.667885,"lng":-73.95068,"byHour":[179,74,53,71,217,623,2665,7277,8291,4583,2982,2632,2791,2826,4000,5056,4495,4044,3019,2016,1371,931,593,436]},{"id":"354","name":"Sterling St (2,5)","lat":40.662743,"lng":-73.95085,"byHour":[206,108,82,143,598,1499,4618,12208,13852,8583,5195,4668,4325,4618,5005,5215,4978,5766,4405,2627,1841,1218,877,518]},{"id":"355","name":"Winthrop St (2,5)","lat":40.65665,"lng":-73.9502,"byHour":[353,123,156,160,709,1929,5852,13503,14784,8235,5453,5293,5673,5887,7582,9239,11858,11411,6186,3918,2358,1348,887,671]},{"id":"356","name":"Church Av (2,5)","lat":40.650845,"lng":-73.94958,"byHour":[357,181,311,475,1405,4033,10313,19375,17578,10192,7208,5861,6213,7171,7147,6577,6424,6642,5440,3784,2666,1958,1566,759]},{"id":"357","name":"Beverly Rd (2,5)","lat":40.6451,"lng":-73.94896,"byHour":[131,75,134,144,984,2554,5737,12793,10400,5407,3401,2961,2865,3439,3472,3458,3750,3479,2417,1584,1076,959,818,543]},{"id":"358","name":"Newkirk Av-Little Haiti (2,5)","lat":40.63997,"lng":-73.94841,"byHour":[209,155,243,472,1797,4303,10305,18714,16199,7656,5221,4327,4649,5439,5369,5188,5243,4802,3195,2319,1901,1559,1279,623]},{"id":"359","name":"Flatbush Av-Brooklyn College (2,5)","lat":40.632835,"lng":-73.94764,"byHour":[814,526,444,770,2850,8844,24100,46581,39936,20259,13436,12444,16127,16615,17043,19303,15294,16900,12292,8212,6575,4971,2804,1400]},{"id":"36","name":"Bay Ridge Av (R)","lat":40.634968,"lng":-74.02338,"byHour":[238,97,118,259,1064,3751,8521,18455,19003,9303,6616,5408,5042,6443,9754,7009,5995,6348,4652,3004,2200,1693,1178,480]},{"id":"360","name":"Pelham Bay Park (6)","lat":40.852463,"lng":-73.82812,"byHour":[570,375,243,437,1447,3414,10155,17484,10515,4818,3036,3116,3340,4065,4191,4825,4462,4026,3383,2390,2087,1772,1087,840]},{"id":"361","name":"Buhre Av (6)","lat":40.84681,"lng":-73.832565,"byHour":[92,32,126,255,888,3215,7172,13014,7741,3635,2058,1904,1895,2168,2428,2495,2080,1609,1254,999,821,635,400,150]},{"id":"362","name":"Middletown Rd (6)","lat":40.843864,"lng":-73.83632,"byHour":[91,53,83,188,655,1822,4103,6800,4322,1628,1101,825,807,1106,1844,2132,1541,1030,696,505,409,429,335,272]},{"id":"363","name":"Westchester Sq-E Tremont Av (6)","lat":40.839893,"lng":-73.84295,"byHour":[209,150,112,142,953,1651,3911,6034,4250,2790,2538,2613,2646,3454,6183,6348,5104,4728,2790,1530,1217,884,751,481]},{"id":"364","name":"Zerega Av (6)","lat":40.836487,"lng":-73.84704,"byHour":[44,24,50,141,627,1865,3455,6730,3956,2224,1533,1315,1330,1616,1816,1925,2253,1764,955,696,479,449,266,146]},{"id":"365","name":"Castle Hill Av (6)","lat":40.834255,"lng":-73.85122,"byHour":[207,175,147,510,1806,5072,7989,13994,11122,5221,3957,3172,3520,3960,4482,4169,4080,3525,2282,1741,1506,1257,823,412]},{"id":"366","name":"Parkchester (6)","lat":40.833225,"lng":-73.86082,"byHour":[492,334,381,1160,4010,10960,21093,36109,27305,13402,9423,7874,7430,8969,9637,9165,8329,6337,5039,3337,2747,2622,1857,883]},{"id":"367","name":"St Lawrence Av (6)","lat":40.83151,"lng":-73.867615,"byHour":[141,77,63,312,1141,3335,5199,8252,6515,3654,2460,1829,2068,2679,2886,3025,2283,1611,1166,923,644,717,498,289]},{"id":"368","name":"Morrison Av-Soundview (6)","lat":40.82952,"lng":-73.87452,"byHour":[169,122,165,519,1434,6096,8913,13741,9593,5010,3566,2743,2783,3590,3660,4235,3330,2549,2004,1475,1233,1177,781,414]},{"id":"369","name":"Elder Av (6)","lat":40.828583,"lng":-73.87916,"byHour":[266,167,253,594,2040,5838,8201,12147,8620,4672,3652,2626,2768,3522,5230,5050,3362,2612,2034,1597,1233,1175,936,494]},{"id":"37","name":"77 St (R)","lat":40.62974,"lng":-74.02551,"byHour":[120,44,85,146,690,3028,6810,15084,13757,6639,4413,3560,3269,3743,3880,4287,4492,4318,3156,1951,1388,897,686,348]},{"id":"370","name":"Whitlock Av (6)","lat":40.826527,"lng":-73.886284,"byHour":[106,113,109,90,472,1248,2514,4440,3497,1403,1055,980,942,1284,1490,2036,1265,1115,828,540,390,406,476,208]},{"id":"371","name":"Hunts Point Av (6)","lat":40.82095,"lng":-73.89055,"byHour":[817,503,395,820,2294,5782,10839,18504,14384,7206,5463,4989,5487,6572,8235,9944,10067,8949,5163,3917,2612,2265,2417,1440]},{"id":"372","name":"Longwood Av (6)","lat":40.816105,"lng":-73.89644,"byHour":[185,108,101,367,745,1609,3849,6005,5046,2511,1792,1961,2187,2707,3855,4236,4210,4262,2006,1343,873,796,661,363]},{"id":"373","name":"E 149 St (6)","lat":40.81212,"lng":-73.9041,"byHour":[250,180,250,327,991,2874,5204,9941,7575,3956,2766,2419,2514,3120,4500,4672,4330,2905,2213,1378,1022,902,869,500]},{"id":"374","name":"E 143 St-St Mary's St (6)","lat":40.80872,"lng":-73.90765,"byHour":[58,22,27,36,90,307,756,1798,1286,656,534,502,731,1603,1948,4089,4414,1822,1420,843,366,200,126,101]},{"id":"375","name":"Cypress Av (6)","lat":40.805367,"lng":-73.91404,"byHour":[161,51,62,187,443,1261,2667,5680,3895,2147,1609,1409,1583,2073,2758,4284,4331,3927,2064,1477,835,695,318,305]},{"id":"376","name":"Brook Av (6)","lat":40.807568,"lng":-73.91924,"byHour":[245,147,152,342,1084,3033,4476,8597,7927,4246,3067,2760,2775,3393,5263,5522,6581,4174,2675,1894,1253,1022,891,530]},{"id":"377","name":"3 Av-138 St (6)","lat":40.810474,"lng":-73.92614,"byHour":[623,297,303,611,1440,3557,6851,16150,14396,7439,4762,4651,4333,5293,6908,8361,11014,8166,5633,3455,2422,1639,1427,1054]},{"id":"378","name":"Woodlawn (4)","lat":40.886036,"lng":-73.87875,"byHour":[716,317,268,492,1454,6902,10807,15459,11201,5851,3702,3300,3090,3926,4045,4789,5500,5465,4535,2665,2141,2157,1464,874]},{"id":"379","name":"Mosholu Pkwy (4)","lat":40.87975,"lng":-73.88466,"byHour":[432,203,234,513,1698,4531,7924,12517,9438,5489,4392,3911,3835,4629,6810,8510,8304,7914,4794,3321,1955,1280,1181,1008]},{"id":"38","name":"86 St (R)","lat":40.62269,"lng":-74.0284,"byHour":[308,167,173,332,1337,5828,14822,26000,24015,14762,9983,7923,7914,8614,9912,11015,10238,9600,7484,5183,3848,2805,1868,887]},{"id":"380","name":"Bedford Park Blvd-Lehman College (4)","lat":40.873413,"lng":-73.89006,"byHour":[198,146,157,297,1556,3370,5829,9385,6192,3717,2841,2503,3188,4306,7186,11831,6789,5671,3245,2772,2511,1521,1059,575]},{"id":"381","name":"Kingsbridge Rd (4)","lat":40.86776,"lng":-73.89717,"byHour":[447,185,200,590,2055,5949,10590,17003,13511,6866,5512,4749,4897,6175,8218,9560,7474,5949,4098,3118,2202,1736,1197,966]},{"id":"382","name":"Fordham Rd (4)","lat":40.862804,"lng":-73.90103,"byHour":[486,374,296,714,2091,6504,8887,14030,12614,7414,5709,5250,6211,6950,7851,8729,7613,6906,5249,4262,3092,2234,1543,1070]},{"id":"383","name":"183 St (4)","lat":40.858406,"lng":-73.90388,"byHour":[268,132,150,413,1620,4659,6606,11730,9041,4538,3168,2840,2597,3593,4054,4258,3462,3187,2306,1795,1373,1263,987,548]},{"id":"384","name":"Burnside Av (4)","lat":40.853455,"lng":-73.907684,"byHour":[418,273,198,663,2452,5681,9055,17483,15041,8428,6582,5406,7006,7505,7695,9695,9979,9001,4701,4460,3403,2347,1907,986]},{"id":"385","name":"176 St (4)","lat":40.84848,"lng":-73.9118,"byHour":[195,153,145,368,1452,3606,6763,11951,8624,4654,3383,3061,3117,3719,3916,5599,4446,3794,2356,1707,1138,1037,942,496]},{"id":"386","name":"Mt Eden Av (4)","lat":40.844433,"lng":-73.91469,"byHour":[237,152,116,270,1129,3378,5665,10012,8183,3863,2839,2516,2476,3159,3843,4855,4252,3528,2262,1866,1204,935,715,518]},{"id":"387","name":"170 St (4)","lat":40.840076,"lng":-73.91779,"byHour":[392,249,288,483,1716,4513,8205,14947,11935,6224,4655,3779,4000,4801,5560,8580,6977,5744,4028,2777,1929,1600,1384,710]},{"id":"388","name":"167 St (4)","lat":40.835537,"lng":-73.9214,"byHour":[316,212,223,677,2235,6995,9604,16711,14657,7881,5637,4703,4521,5287,6066,6153,6311,5707,3798,2810,1981,1626,1538,744]},{"id":"39","name":"Bay Ridge-95 St (R)","lat":40.616623,"lng":-74.030876,"byHour":[173,149,126,212,752,2957,7121,14367,13034,6433,3973,3506,3289,3438,4182,4324,4867,4919,3322,2073,1561,986,810,481]},{"id":"391","name":"138 St-Grand Concourse (4,5)","lat":40.813225,"lng":-73.92985,"byHour":[352,146,137,409,1117,2287,2934,4591,5379,4192,2593,2213,2224,2685,3352,4151,4194,4386,3126,2164,1340,1003,747,481]},{"id":"392","name":"125 St (4,5,6)","lat":40.80414,"lng":-73.93759,"byHour":[3239,1121,673,807,1580,5588,14927,36977,37658,22506,15983,14977,16061,17909,21596,30025,35201,34379,25830,16250,11141,9216,8011,5741]},{"id":"393","name":"116 St (6)","lat":40.79863,"lng":-73.94162,"byHour":[854,274,286,501,1172,3145,6694,16178,20797,12464,9118,8265,8788,9379,13147,22233,15624,13787,10168,7334,4788,2826,1782,1408]},{"id":"394","name":"110 St (6)","lat":40.79502,"lng":-73.94425,"byHour":[329,175,141,242,721,2655,5797,14180,17837,9751,6496,5627,5628,6188,9582,11047,10851,8824,6693,4801,3257,1857,1226,688]},{"id":"395","name":"103 St (6)","lat":40.7906,"lng":-73.94748,"byHour":[395,221,176,228,620,2186,5656,14535,17129,9422,7418,6803,7382,8368,13408,24427,19151,16978,10414,7041,4623,2660,1807,1671]},{"id":"396","name":"96 St (6)","lat":40.78567,"lng":-73.95107,"byHour":[835,340,232,222,274,1235,4414,17186,26032,15283,10872,12632,11845,13482,22081,32859,35700,34463,20534,15530,8374,4650,3265,2767]},{"id":"397","name":"86 St (4,5,6)","lat":40.77949,"lng":-73.95559,"byHour":[4084,1186,608,487,625,2350,11461,38913,68431,39842,25216,25267,29248,33415,42678,69885,82233,82317,64197,41215,28776,19167,15313,11518]},{"id":"398","name":"77 St (6)","lat":40.77362,"lng":-73.95988,"byHour":[1472,454,219,121,224,866,4411,20584,38903,23742,16036,16299,18926,21403,30966,51669,56565,51706,38549,23512,17511,9735,7193,5088]},{"id":"399","name":"68 St-Hunter College (6)","lat":40.768143,"lng":-73.96387,"byHour":[876,238,60,57,74,394,2358,10254,16405,14827,11992,19743,24782,24222,43228,53953,51856,62035,44051,29626,25937,14181,6493,2890]},{"id":"4","name":"Broadway (N,W)","lat":40.76182,"lng":-73.92551,"byHour":[514,294,216,271,941,3167,9197,23385,33481,18852,11112,8720,7885,8359,8970,12197,10490,11271,9865,5714,3717,2811,2027,1273]},{"id":"403","name":"33 St (6)","lat":40.746082,"lng":-73.98208,"byHour":[2768,894,422,301,460,1333,5173,17664,31019,23804,16896,17220,18416,21507,27234,36248,46571,59805,40284,26352,18485,13466,9761,6594]},{"id":"404","name":"28 St (6)","lat":40.74307,"lng":-73.98426,"byHour":[2913,946,587,337,340,724,3412,13511,23212,15789,11919,11715,12879,14229,19485,27357,34806,43490,29139,20611,14609,11458,9759,6895]},{"id":"405","name":"23 St (6)","lat":40.739864,"lng":-73.9866,"byHour":[2294,709,356,287,300,1113,4209,15376,29550,21346,17230,16935,24031,20476,33060,40109,47182,55096,35519,31805,23395,15984,8226,5984]},{"id":"407","name":"Astor Pl (6)","lat":40.730053,"lng":-73.99107,"byHour":[2535,1236,746,385,237,498,2594,10117,21642,13767,8347,7934,10642,11820,14516,18573,20919,25592,21578,17386,16051,14534,10976,6938]},{"id":"409","name":"Spring St (6)","lat":40.7223,"lng":-73.99714,"byHour":[1656,750,292,187,194,342,1331,5185,9105,6887,5881,6563,8237,10164,12557,15147,17989,22097,20462,16511,12648,9537,7817,4933]},{"id":"41","name":"7 Av (B,Q)","lat":40.67705,"lng":-73.97237,"byHour":[453,133,73,82,130,555,4138,14045,26153,15636,7965,6409,6210,5988,7548,9357,10249,13024,11572,6636,4649,3285,2212,1343]},{"id":"413","name":"Wall St (4,5)","lat":40.707558,"lng":-74.01186,"byHour":[1577,317,131,124,161,997,3337,11509,19238,11986,8651,8940,10179,11328,14305,20998,28865,43350,27010,13989,8221,5512,4354,3155]},{"id":"414","name":"Bowling Green (4,5)","lat":40.70482,"lng":-74.01407,"byHour":[2037,612,320,315,640,3030,9672,17854,24365,16394,11657,12000,14830,17347,24555,37774,48612,57997,30690,14343,8915,5799,4345,2995]},{"id":"416","name":"Wakefield-241 St (2)","lat":40.903126,"lng":-73.85062,"byHour":[578,415,530,699,1692,3867,7460,8530,5320,3104,2245,1922,2215,2345,2520,2943,3650,3437,2371,1551,1515,1395,920,681]},{"id":"417","name":"Nereid Av (2,5)","lat":40.89838,"lng":-73.85438,"byHour":[109,39,81,255,666,1851,5825,7578,4227,1987,1703,1490,1358,1641,2037,1659,2215,2424,1555,987,813,455,460,249]},{"id":"418","name":"233 St (2,5)","lat":40.893192,"lng":-73.857475,"byHour":[240,122,92,395,887,2886,7014,8127,5401,2906,2184,2048,2198,2629,2464,2658,3226,2960,1875,1396,950,821,543,371]},{"id":"419","name":"225 St (2,5)","lat":40.888023,"lng":-73.860344,"byHour":[150,103,134,275,861,2287,4847,7268,4860,2498,1403,1396,1565,1924,2254,2363,1936,1592,1387,1043,852,760,563,248]},{"id":"42","name":"Prospect Park (B,Q,S)","lat":40.661613,"lng":-73.96225,"byHour":[585,333,226,317,735,2383,6918,17927,21355,12496,7531,6785,6684,7401,8124,8288,8453,10423,9087,5950,3854,2696,2194,1240]},{"id":"420","name":"219 St (2,5)","lat":40.883896,"lng":-73.86263,"byHour":[126,90,80,160,717,1515,4487,6369,3875,2085,1438,1301,1204,1497,2222,2104,1744,1504,953,796,540,574,418,201]},{"id":"421","name":"Gun Hill Rd (2,5)","lat":40.87785,"lng":-73.86626,"byHour":[526,276,294,465,1710,3489,7755,12613,9061,5292,3834,3572,3365,4341,6362,6797,6003,5551,4030,2451,2230,1564,1063,1003]},{"id":"422","name":"Burke Av (2,5)","lat":40.871357,"lng":-73.867165,"byHour":[88,67,78,282,540,1864,4619,6420,4521,2175,1601,1282,1260,1656,1593,1729,1717,1438,1188,693,594,397,324,160]},{"id":"423","name":"Allerton Av (2,5)","lat":40.865463,"lng":-73.867355,"byHour":[132,47,153,314,1105,2750,6166,10339,6303,3281,2265,1913,2162,2565,2783,3292,3114,2685,2057,1569,1055,779,521,374]},{"id":"424","name":"Pelham Pkwy (2,5)","lat":40.857193,"lng":-73.867615,"byHour":[468,231,173,440,1599,4140,9361,13791,10936,5650,3951,3367,3708,4265,4680,6874,6393,6118,4660,3153,2481,1826,1172,814]},{"id":"425","name":"Bronx Park East (2,5)","lat":40.848827,"lng":-73.868454,"byHour":[84,57,78,126,687,1485,3328,6387,4317,1833,1208,959,981,1235,1610,1760,1481,1461,996,544,428,431,252,139]},{"id":"426","name":"E 180 St (2,5)","lat":40.841892,"lng":-73.87349,"byHour":[491,293,300,576,1991,8446,13689,19577,14888,6786,5092,4123,4154,5604,6635,6305,5835,5482,3954,2935,1921,1661,1266,818]},{"id":"427","name":"West Farms Sq-E Tremont Av (2,5)","lat":40.840294,"lng":-73.88005,"byHour":[287,255,178,272,790,2752,4881,8308,6576,3864,2852,2445,2654,3377,4312,5427,5628,4635,2644,1779,1272,1074,755,594]},{"id":"428","name":"174 St (2,5)","lat":40.837288,"lng":-73.88773,"byHour":[257,82,183,287,772,3627,6316,9647,8039,4891,3187,2770,2910,3499,5060,6140,5458,4551,2998,1843,1203,1036,660,362]},{"id":"429","name":"Freeman St (2,5)","lat":40.829994,"lng":-73.89187,"byHour":[185,88,98,150,642,3165,5513,8318,6347,3464,2446,2013,2247,2666,3640,4011,3866,2775,1873,1305,836,704,524,245]},{"id":"43","name":"Parkside Av (Q)","lat":40.655293,"lng":-73.961494,"byHour":[356,183,192,243,965,2851,6529,13723,15919,10316,5907,5053,4990,5235,5370,5426,5715,6779,6009,3809,2415,1967,1278,737]},{"id":"430","name":"Simpson St (2,5)","lat":40.824074,"lng":-73.89307,"byHour":[452,279,210,263,772,4454,7573,11560,10046,6497,4841,3814,3977,5045,5622,7849,8262,7252,4520,3240,1897,1348,914,807]},{"id":"431","name":"Intervale Av (2,5)","lat":40.82218,"lng":-73.896736,"byHour":[87,48,96,121,451,1696,3054,4240,3084,2234,1517,1370,1520,2021,2531,3412,2876,2315,1229,762,656,559,296,211]},{"id":"432","name":"Prospect Av (2,5)","lat":40.819584,"lng":-73.90177,"byHour":[267,168,143,253,790,3669,6564,10985,7793,5361,3978,3073,3024,3284,5049,6906,7204,5670,3056,2033,1403,1171,638,435]},{"id":"433","name":"Jackson Av (2,5)","lat":40.81649,"lng":-73.90781,"byHour":[234,105,105,171,581,2308,5039,8432,7276,4222,2963,1959,2306,2825,4543,6076,5444,3829,2349,1482,1090,748,508,425]},{"id":"434","name":"3 Av-149 St (2,5)","lat":40.81611,"lng":-73.917755,"byHour":[603,347,338,390,1144,7151,14334,29077,27340,16290,13004,10963,13526,13818,17275,22712,23639,20663,11412,9609,6101,3444,1571,1384]},{"id":"436","name":"Harlem-148 St (3)","lat":40.82388,"lng":-73.93647,"byHour":[146,86,82,86,428,1400,3155,7945,6400,3420,2343,2021,1987,2190,3582,2646,2444,2474,1821,1238,673,591,521,289]},{"id":"437","name":"145 St (3)","lat":40.82042,"lng":-73.93625,"byHour":[31,17,15,21,179,1010,2529,6747,5368,2924,1947,1844,1844,1980,2423,2725,2696,2294,1712,1149,679,477,191,77]},{"id":"438","name":"135 St (2,3)","lat":40.814228,"lng":-73.94077,"byHour":[569,269,220,278,548,2963,6512,15198,16541,9986,7120,6505,6935,8075,11232,11408,13824,11802,7826,5729,3846,2374,1731,1144]},{"id":"439","name":"125 St (2,3)","lat":40.807755,"lng":-73.945496,"byHour":[839,302,260,302,625,1901,5102,14110,16349,10962,8375,9184,9681,11779,13871,18537,19464,21347,14167,11340,7272,5284,2540,1886]},{"id":"44","name":"Church Av (B,Q)","lat":40.650528,"lng":-73.96298,"byHour":[190,170,151,467,1814,5324,14509,29502,30081,17094,9972,9025,8176,9404,10032,8410,8437,9734,7872,5712,3478,2437,1900,799]},{"id":"440","name":"116 St (2,3)","lat":40.802097,"lng":-73.94962,"byHour":[300,165,109,154,397,1732,4768,15540,16749,9564,6211,5514,5687,6228,7536,8956,9209,9323,7336,5128,3327,2111,1435,833]},{"id":"441","name":"Central Park North (110 St) (2,3)","lat":40.799076,"lng":-73.95182,"byHour":[407,206,140,189,379,1698,3935,10952,14234,7453,4884,4103,4298,4965,6468,9283,8406,8202,6232,3936,2591,1687,1205,1247]},{"id":"442","name":"Eastchester-Dyre Av (5)","lat":40.8883,"lng":-73.83083,"byHour":[60,51,40,161,504,3660,8603,10154,6580,3066,2266,1867,1986,2107,2047,2376,2879,2673,1909,1156,722,500,358,136]},{"id":"443","name":"Baychester Av (5)","lat":40.878662,"lng":-73.83859,"byHour":[40,9,55,44,323,2343,5126,6947,4907,2232,1645,1309,1358,1808,3520,3634,2292,1765,1159,785,484,347,217,187]},{"id":"444","name":"Gun Hill Rd (5)","lat":40.869526,"lng":-73.84638,"byHour":[72,44,118,161,580,4453,8714,11558,8167,4125,3126,2516,2376,2823,2790,2673,2240,2298,2055,1169,861,526,356,193]},{"id":"445","name":"Pelham Pkwy (5)","lat":40.858986,"lng":-73.85536,"byHour":[27,9,16,29,269,2674,4949,8675,6227,2623,1813,1499,1845,1895,2398,3583,2750,2476,1374,819,445,211,149,64]},{"id":"446","name":"Morris Park (5)","lat":40.854362,"lng":-73.8605,"byHour":[13,4,21,18,206,2595,4983,8814,6235,2957,1840,1576,1392,1756,2126,2191,1484,1279,918,501,291,165,80,48]},{"id":"447","name":"Flushing-Main St (7)","lat":40.7596,"lng":-73.83003,"byHour":[3843,1934,1237,1814,7053,34898,70609,112105,107783,72630,51036,40918,42112,46395,55145,61492,57828,65088,53399,37644,32461,25171,18134,10099]},{"id":"448","name":"Mets-Willets Point (7)","lat":40.754623,"lng":-73.84563,"byHour":[14511,1627,1444,527,1550,1512,1761,2890,2851,2030,1638,1649,2044,2454,3521,6333,11975,15090,14851,11988,10519,46437,36916,21761]},{"id":"449","name":"111 St (7)","lat":40.75173,"lng":-73.85533,"byHour":[446,185,248,713,3660,13417,20987,29272,21008,10885,7914,5743,4782,5942,6771,6657,5673,5393,3862,2854,2041,1698,1318,966]},{"id":"45","name":"Beverley Rd (Q)","lat":40.64403,"lng":-73.96449,"byHour":[251,120,120,202,581,1671,4689,10852,10848,5631,3642,2839,2593,2987,3476,3079,3307,3637,2983,1824,1422,952,1584,1681]},{"id":"450","name":"103 St-Corona Plaza (7)","lat":40.749866,"lng":-73.8627,"byHour":[1004,855,769,1752,7501,26725,42937,65938,47756,27694,20706,14979,14441,16896,19596,21477,17835,16116,12499,10155,7611,6107,4308,2486]},{"id":"451","name":"Junction Blvd (7)","lat":40.749146,"lng":-73.86953,"byHour":[1155,745,836,1561,7100,24912,45766,68889,51220,28527,19881,14723,14714,17560,22507,22651,19434,18520,15455,12517,8809,6050,4096,2214]},{"id":"452","name":"90 St-Elmhurst Av (7)","lat":40.74841,"lng":-73.87661,"byHour":[868,600,660,1183,4877,13742,32751,48989,36351,23781,17894,14542,14045,17166,16155,16990,15376,15523,12887,9933,6838,5049,3861,2072]},{"id":"453","name":"82 St-Jackson Hts (7)","lat":40.747658,"lng":-73.8837,"byHour":[528,331,327,540,1915,4559,10081,19502,18217,11240,9559,8495,8807,10077,11603,12284,11787,11519,9666,7273,5739,3200,2187,1056]},{"id":"455","name":"69 St (7)","lat":40.746326,"lng":-73.8964,"byHour":[247,147,126,229,962,2936,6874,15033,13380,8546,5970,4230,3981,4372,4608,4902,5030,5327,4468,3141,2483,1655,1122,648]},{"id":"456","name":"61 St-Woodside (7)","lat":40.74563,"lng":-73.902985,"byHour":[944,369,254,621,2017,7491,22453,42675,36818,21892,15992,11780,10357,11803,11976,13023,12893,14643,13369,8671,6075,4390,3269,2338]},{"id":"457","name":"52 St (7)","lat":40.74415,"lng":-73.91255,"byHour":[245,84,149,140,669,2159,5212,11946,15202,8395,5178,4067,3783,4119,4293,4305,4567,5867,4112,2430,1695,1198,1075,496]},{"id":"458","name":"46 St-Bliss St (7)","lat":40.743134,"lng":-73.918434,"byHour":[672,305,223,543,1393,4703,11158,24446,27953,16910,11212,8809,7933,8847,13800,11951,11699,12501,9897,6560,4106,3067,2828,1733]},{"id":"459","name":"40 St-Lowery St (7)","lat":40.743782,"lng":-73.92402,"byHour":[491,209,210,240,892,2968,6923,16895,22381,13568,8488,6512,6082,8089,9987,12199,11135,10712,8109,4770,3123,2252,2012,1184]},{"id":"46","name":"Cortelyou Rd (Q)","lat":40.640926,"lng":-73.96389,"byHour":[223,131,96,219,970,2434,6527,15156,16172,8437,5144,4252,3758,4435,4898,4121,4472,4854,4034,2666,1663,1308,1163,511]},{"id":"460","name":"33 St-Rawson St (7)","lat":40.744587,"lng":-73.931,"byHour":[485,254,256,170,503,1007,1139,2594,3607,3201,4851,6905,8578,9492,19553,24092,20707,17514,8447,7293,6208,4483,2205,940]},{"id":"461","name":"Queensboro Plaza (7,N,W)","lat":40.750584,"lng":-73.9402,"byHour":[1726,704,364,411,698,1757,4204,11441,20679,16392,10364,8807,8390,8807,12677,20820,18666,19687,13288,7897,5496,4726,4239,3086]},{"id":"463","name":"Hunters Point Av (7)","lat":40.742214,"lng":-73.94891,"byHour":[286,80,57,165,420,1883,2923,5735,7539,3741,2270,1882,1939,2316,4392,9126,12553,10159,5176,2582,1428,718,569,968]},{"id":"464","name":"Vernon Blvd-Jackson Av (7)","lat":40.742626,"lng":-73.95358,"byHour":[1057,435,170,160,408,2179,7594,25897,45385,28651,14314,11011,9896,9904,13184,16969,16351,19584,17140,10450,7402,5975,5291,3199]},{"id":"47","name":"Newkirk Plaza (B,Q)","lat":40.635082,"lng":-73.96279,"byHour":[254,167,192,299,998,3959,10981,25424,24305,13007,8228,7122,6433,7589,7897,7473,7395,7705,6018,3988,2586,1927,1197,636]},{"id":"471","name":"34 St-Hudson Yards (7)","lat":40.755882,"lng":-74.00191,"byHour":[4419,1808,784,546,596,1183,3475,9089,14172,10974,9021,11337,14049,17260,24155,34915,48069,73090,51158,28583,20137,12993,11147,8209]},{"id":"475","name":"96 St (Q)","lat":40.784317,"lng":-73.94715,"byHour":[994,304,317,339,978,2859,8453,25087,40265,22063,13642,13402,11234,11576,15833,22365,23532,23899,17967,12117,7152,5061,4054,2761]},{"id":"476","name":"86 St (Q)","lat":40.77789,"lng":-73.95179,"byHour":[1123,343,257,154,313,1763,8089,29138,63932,34649,17141,14571,14255,14676,16311,23469,28985,34463,32101,19474,12217,8879,7325,3973]},{"id":"477","name":"72 St (Q)","lat":40.7688,"lng":-73.95843,"byHour":[1794,444,209,185,272,1234,5969,24492,50219,27876,17571,16763,18413,20976,31383,45659,59798,68874,49106,32575,19816,12216,9592,6238]},{"id":"48","name":"Avenue H (Q)","lat":40.62927,"lng":-73.96164,"byHour":[95,102,46,99,394,1028,2933,7453,7210,3882,2680,2502,3401,3274,4330,5427,3160,3858,2704,1746,1288,1030,540,136]},{"id":"49","name":"Avenue J (Q)","lat":40.62504,"lng":-73.9608,"byHour":[219,77,66,109,535,2120,4935,10755,11867,6560,4261,3837,4073,4669,5258,5671,6477,6371,4524,2981,2188,1208,1100,403]},{"id":"5","name":"36 Av (N,W)","lat":40.756805,"lng":-73.92957,"byHour":[251,248,155,186,632,1685,4248,10815,14784,8307,5243,4316,4088,4619,7881,8315,7086,7632,5961,3785,2405,1866,1468,758]},{"id":"50","name":"Avenue M (Q)","lat":40.61762,"lng":-73.9594,"byHour":[145,54,45,110,422,1635,4791,10896,11945,7101,4534,4218,4623,6301,7579,7859,6104,6771,4160,2824,1651,944,612,431]},{"id":"501","name":"St George (SIR)","lat":40.64375,"lng":-74.07365,"byHour":[1005,616,293,389,1086,3170,10336,22268,16859,4851,3851,3521,4153,4674,6923,8199,14019,20856,13646,6113,4094,3394,2175,1334]},{"id":"502","name":"Tompkinsville (SIR)","lat":40.636948,"lng":-74.07484,"byHour":[93,30,14,9,43,115,477,829,937,518,427,426,442,470,660,742,784,699,519,346,267,187,213,141]},{"id":"51","name":"Kings Hwy (B,Q)","lat":40.60867,"lng":-73.95773,"byHour":[569,253,219,245,1882,7839,22616,43884,43556,25574,16020,14088,14174,15694,16826,18617,17621,19386,13862,9474,6808,3923,2472,1186]},{"id":"52","name":"Avenue U (Q)","lat":40.5993,"lng":-73.95593,"byHour":[184,111,165,264,1236,3581,8038,17241,15486,9623,6075,4910,4766,5115,5285,5349,5635,6306,4669,2990,2090,1325,847,402]},{"id":"53","name":"Neck Rd (Q)","lat":40.595245,"lng":-73.95516,"byHour":[77,55,32,154,692,2826,6411,13903,11901,6003,3688,2753,2527,3057,2861,2579,2839,3553,2425,1621,1253,956,441,223]},{"id":"54","name":"Sheepshead Bay (B,Q)","lat":40.586895,"lng":-73.954155,"byHour":[635,283,209,317,1482,6285,17315,32495,28287,14135,9914,8556,8540,9600,9608,11401,11792,12960,8701,6206,4543,2838,1899,1233]},{"id":"55","name":"Brighton Beach (B,Q)","lat":40.57762,"lng":-73.96137,"byHour":[329,133,82,176,1097,4664,10960,21446,19408,10500,8105,7950,8831,10447,12476,12102,10886,11768,9288,7137,5239,2997,1860,890]},{"id":"56","name":"Ocean Pkwy (Q)","lat":40.576313,"lng":-73.9685,"byHour":[94,50,48,51,414,1461,3184,5870,5608,2965,2336,2541,2793,3045,3551,3779,3290,3747,3007,2259,1381,781,398,336]},{"id":"57","name":"W 8 St-NY Aquarium (F,Q)","lat":40.576126,"lng":-73.97594,"byHour":[98,45,21,35,166,589,1727,3982,3204,1930,1590,1720,1939,2357,2749,3139,3824,3293,2093,1617,1163,650,452,261]},{"id":"58","name":"Coney Island-Stillwell Av (D,F,N,Q)","lat":40.577423,"lng":-73.98123,"byHour":[1496,958,698,824,2541,6421,14463,27324,20586,12812,9968,9266,10924,13325,15960,15396,16068,14467,11788,9519,7538,5905,4579,2724]},{"id":"59","name":"9 Av (D)","lat":40.646294,"lng":-73.99432,"byHour":[186,83,99,303,946,3325,7027,14217,12526,7275,4950,3705,3404,3901,3876,3952,4053,4987,3155,1907,1308,998,645,352]},{"id":"6","name":"39 Av-Dutch Kills (N,W)","lat":40.75288,"lng":-73.932755,"byHour":[299,72,51,84,192,349,1591,4381,7457,5657,3670,2817,2403,2473,3437,4792,4979,5820,4442,2301,1394,927,567,499]},{"id":"60","name":"Fort Hamilton Pkwy (D)","lat":40.640915,"lng":-73.9943,"byHour":[223,91,66,171,398,1400,3578,8829,7344,3980,3252,2510,2458,3000,3823,4563,5376,5512,3391,2506,1637,852,562,468]},{"id":"601","name":"14 St (F,M,1,2,3)/6 Av (L)","lat":40.738228,"lng":-73.99621,"byHour":[6441,2381,1329,843,855,1559,7173,21575,41245,31018,21520,23170,26959,31398,40697,53916,59945,75316,70064,51643,41121,34681,28733,17688]},{"id":"602","name":"14 St-Union Sq (L,N,Q,R,W,4,5,6)","lat":40.735737,"lng":-73.98995,"byHour":[15430,4933,2529,1507,1703,3935,11491,37587,68105,52005,41751,48947,59557,71517,101932,142355,149229,179807,156810,116333,93498,76108,61100,39350]},{"id":"603","name":"149 St-Grand Concourse (2,4,5)","lat":40.818375,"lng":-73.92735,"byHour":[931,365,312,450,1320,3865,6906,13366,12166,7492,6400,6241,8063,9211,11237,15958,16150,14305,8694,6628,5443,3513,2394,1575]},{"id":"604","name":"161 St-Yankee Stadium (B,D,4)","lat":40.827995,"lng":-73.92565,"byHour":[2276,1017,783,1308,3945,11165,20960,36609,33306,18779,15299,14412,14815,16762,20266,23582,28049,28816,15939,11452,14510,49892,69437,7856]},{"id":"605","name":"168 St (A,C,1)","lat":40.840717,"lng":-73.93956,"byHour":[1500,442,396,559,1866,4946,10819,27082,26241,16280,13979,14831,15458,17439,26587,36582,46896,48731,25543,19039,10241,5675,4453,3897]},{"id":"606","name":"Court Sq (E,G,M,7)","lat":40.747845,"lng":-73.94383,"byHour":[2074,730,496,489,935,2635,7863,21646,41618,31063,18454,16664,16568,18322,27953,38968,43346,50484,35426,21464,14842,10880,7547,4981]},{"id":"607","name":"34 St-Herald Sq (B,D,F,M,N,Q,R,W)","lat":40.749718,"lng":-73.98782,"byHour":[17964,6428,3086,1897,2454,8471,27538,58893,88819,74494,52580,54661,61641,70376,79935,102308,138975,219533,172144,109816,87742,71620,58208,41496]},{"id":"608","name":"4 Av (F,G)/9 St (R)","lat":40.67085,"lng":-73.988304,"byHour":[818,282,172,126,384,1392,5217,16328,25934,13694,8613,7786,7584,8248,9989,16679,15975,18281,15569,9211,6116,5487,4382,2686]},{"id":"609","name":"Bryant Pk (B,D,F,M)/5 Av (7)","lat":40.754223,"lng":-73.981964,"byHour":[9603,2961,1392,824,935,2123,4840,9276,12636,15730,19270,23899,30013,35104,44878,61867,92067,162311,119544,65861,48010,34941,26007,17201]},{"id":"61","name":"50 St (D)","lat":40.63626,"lng":-73.99479,"byHour":[309,65,51,46,271,756,2344,5168,4391,2965,2250,2144,2221,2678,3390,4342,5178,5370,4148,3243,1774,949,769,543]},{"id":"610","name":"Grand Central-42 St (S,4,5,6,7)","lat":40.751778,"lng":-73.976845,"byHour":[17875,4921,2215,1114,1305,15779,53433,139804,209846,138628,89809,79200,86275,93293,113551,148088,208482,345379,258191,141101,87925,60332,47884,33789]},{"id":"611","name":"Times Sq-42 St (N,Q,R,W,S,1,2,3,7)/42 St (A,C,E)","lat":40.75731,"lng":-73.986755,"byHour":[36692,14536,6900,4466,6700,50638,120875,191310,241367,188783,125360,104878,101354,109865,131671,152647,201138,292592,231580,147878,126273,141490,124590,71343]},{"id":"612","name":"Lexington Av-53 St (E,M)/51 St (6)","lat":40.757553,"lng":-73.969055,"byHour":[6537,1760,671,475,770,1625,5672,20046,40103,31675,28156,29718,34087,39492,58718,75429,101610,160567,117552,66941,39483,25677,18130,12456]},{"id":"613","name":"Lexington Av (N,R,W)/59 St (4,5,6)","lat":40.76266,"lng":-73.967255,"byHour":[6975,2104,987,706,946,2481,7061,20637,33724,26160,24000,27621,32096,37229,53300,74241,94525,130685,91892,56002,37698,23531,20038,14451]},{"id":"614","name":"59 St-Columbus Circle (A,B,C,D,1)","lat":40.768295,"lng":-73.981735,"byHour":[9695,3326,1436,1102,1375,3718,10015,31529,50022,41309,38653,40365,53498,63209,75362,105030,132184,151346,115138,85737,62960,46761,36568,23549]},{"id":"615","name":"New Utrecht Av (N)/62 St (D)","lat":40.626472,"lng":-73.99635,"byHour":[248,114,108,138,741,2758,5851,10466,9611,5780,4268,3203,3097,3732,5711,5229,5288,5556,3839,2664,1577,888,625,451]},{"id":"616","name":"74-Broadway (7)/Jackson Hts-Roosevelt Av (E,F,M,R)","lat":40.74685,"lng":-73.891335,"byHour":[6611,2960,2332,3138,10067,28390,58739,104880,107646,72579,58462,44038,42023,46428,54092,58531,58160,55536,46447,36442,30663,24137,17344,11857]},{"id":"617","name":"Atlantic Av-Barclays Ctr (B,D,N,Q,R,2,3,4,5)","lat":40.68446,"lng":-73.97689,"byHour":[5690,1794,887,782,1712,4787,22314,42754,68896,38632,22488,23678,26201,29753,41031,69468,55774,60972,50422,34677,27206,28931,25851,29774]},{"id":"618","name":"14 St (A,C,E)/8 Av (L)","lat":40.740894,"lng":-74.00169,"byHour":[7937,3142,1725,1097,1189,2449,6403,15620,30337,21602,17639,21211,26863,34435,56695,79788,77553,91398,77915,57553,46131,38030,31098,18756]},{"id":"619","name":"Broadway-Lafayette St (B,D,F,M)/Bleecker St (6)","lat":40.725914,"lng":-73.99466,"byHour":[6003,2398,1271,695,604,1002,4120,13510,29094,21476,17375,19961,25817,31525,38567,51526,62249,79424,75222,58994,43146,32812,23748,15478]},{"id":"62","name":"55 St (D)","lat":40.631435,"lng":-73.995476,"byHour":[170,90,57,86,166,396,1131,2367,2467,1575,1188,1131,1309,1529,1937,2541,2705,3418,2167,1695,937,493,462,260]},{"id":"620","name":"Court St (R)/Borough Hall (2,3,4,5)","lat":40.6941,"lng":-73.99,"byHour":[1732,508,286,247,362,1253,5294,21080,42440,29843,23074,23615,24461,25565,29396,49276,56086,58738,37277,23598,16809,10377,7202,4342]},{"id":"621","name":"Broadway Junction (A,C,J,L,Z)","lat":40.678333,"lng":-73.90532,"byHour":[1033,470,440,633,1399,3910,8642,15729,13289,7827,5224,4519,4806,6054,6397,7944,7828,7342,5811,4065,3014,2722,2282,1450]},{"id":"622","name":"Brooklyn Bridge-City Hall (4,5,6)/Chambers St (J,Z)","lat":40.71324,"lng":-74.0034,"byHour":[2333,932,334,337,395,1051,3549,13626,20653,16298,16679,18512,21630,22374,31754,47327,60309,67527,38619,23896,17830,10949,7474,5315]},{"id":"623","name":"Canal St (J,N,Q,R,W,Z,6)","lat":40.71953,"lng":-73.99989,"byHour":[4470,1842,950,542,615,936,3192,10401,18394,17833,20827,26149,33866,38405,45846,59325,74651,99150,82717,59228,45474,35337,22530,12915]},{"id":"624","name":"Chambers St (A,C)/WTC (E)/Park Pl (2,3)/Cortlandt (R,W)","lat":40.71411,"lng":-74.00858,"byHour":[3385,1315,655,652,1150,4780,13369,31128,51292,40318,30669,34038,41075,47563,57934,82541,116884,167339,109146,62460,39038,23394,14393,9023]},{"id":"625","name":"Delancey St (F)/Essex St (J,M,Z)","lat":40.718613,"lng":-73.987434,"byHour":[6425,2589,1462,1084,1221,2319,6949,20313,39866,24189,16096,15318,15929,19422,31784,42283,37212,37579,33287,28656,24495,21481,17679,13723]},{"id":"626","name":"Franklin Av (2,3,4,5)/Botanic Garden (S)","lat":40.67068,"lng":-73.95813,"byHour":[852,387,311,425,1155,3034,8633,22648,36220,20860,11660,9611,9988,12402,16053,21368,15776,17701,14407,9292,6650,5021,3405,1964]},{"id":"627","name":"Franklin Av (C,S)","lat":40.68138,"lng":-73.95685,"byHour":[450,234,185,146,277,947,2367,6699,10862,6714,4453,4116,3949,4379,4949,6883,6367,6936,6394,4167,3049,2338,1593,934]},{"id":"628","name":"Fulton St (A,C,J,Z,2,3,4,5)","lat":40.710373,"lng":-74.00657,"byHour":[8344,3051,1310,1037,1720,8574,26415,61011,87261,63404,43357,43562,50982,57853,72118,100520,146709,214138,145255,81040,52659,37847,31723,18847]},{"id":"629","name":"Lorimer St (L)/Metropolitan Av (G)","lat":40.71406,"lng":-73.95027,"byHour":[3429,1397,719,484,673,2137,5941,16818,32435,21028,11358,9251,8905,9615,11240,14351,14545,18524,19394,14986,11464,10920,10361,7871]},{"id":"630","name":"Myrtle-Wyckoff Avs (L,M)","lat":40.699814,"lng":-73.91158,"byHour":[1137,645,617,882,2962,13386,27045,44737,46212,27676,18454,16144,14887,16850,19282,21526,19985,20082,17275,12444,8484,6164,4649,2967]},{"id":"635","name":"South Ferry (1)/Whitehall St (R,W)","lat":40.703087,"lng":-74.01299,"byHour":[2295,1077,623,768,1753,7039,12972,30100,32983,19644,14355,15771,19114,24212,30392,44210,49760,62973,34949,19971,14522,8754,6604,3677]},{"id":"636","name":"Jay St-MetroTech (A,C,F,R)","lat":40.692337,"lng":-73.98594,"byHour":[3138,978,614,535,1153,2988,7594,19704,32223,27061,24591,33624,33740,38047,45890,70137,83494,89235,52877,41192,33895,18619,10151,6136]},{"id":"64","name":"71 St (D)","lat":40.61959,"lng":-73.99886,"byHour":[112,133,101,235,964,3464,7426,14413,12778,6541,3936,2716,2802,2733,3093,2734,2839,2687,2118,1546,1072,759,465,211]},{"id":"65","name":"79 St (D)","lat":40.613503,"lng":-74.00061,"byHour":[89,82,95,296,1307,4360,9639,16031,14627,8378,5131,4526,4461,5082,5946,5337,6061,3301,2482,1527,962,699,539,209]},{"id":"66","name":"18 Av (D)","lat":40.607952,"lng":-74.00174,"byHour":[182,111,48,265,1114,4172,8963,16251,15010,7316,4638,3949,3573,4020,4004,4317,4286,4142,3108,2145,1347,934,783,397]},{"id":"67","name":"20 Av (D)","lat":40.604557,"lng":-73.99817,"byHour":[135,62,69,189,939,3483,7829,13073,12019,6380,4057,3101,2988,3788,3819,3610,2875,3083,2508,1884,1210,1188,796,323]},{"id":"68","name":"Bay Pkwy (D)","lat":40.601875,"lng":-73.99373,"byHour":[210,81,76,276,1143,4701,9752,19134,15551,8589,5751,4831,4781,5559,5728,5908,5457,5341,4287,3032,1947,1415,991,415]},{"id":"69","name":"25 Av (D)","lat":40.597706,"lng":-73.98683,"byHour":[151,97,96,119,847,2270,6278,12639,10196,5048,3044,2474,2238,2706,3596,4178,3060,2537,1990,1285,942,699,506,294]},{"id":"70","name":"Bay 50 St (D)","lat":40.58884,"lng":-73.983765,"byHour":[54,56,26,128,622,1476,3355,6734,5452,3161,2033,1649,1700,2488,5567,4463,2385,1824,1448,648,497,343,329,158]},{"id":"71","name":"8 Av (N)","lat":40.635063,"lng":-74.01172,"byHour":[402,165,110,170,499,2177,7303,19262,14408,12152,10317,9818,9847,10105,9602,10118,11340,15275,9881,6034,3260,2628,1368,647]},{"id":"72","name":"Fort Hamilton Pkwy (N)","lat":40.631386,"lng":-74.00535,"byHour":[191,88,66,244,937,2833,8553,20361,17306,10428,6631,4708,4207,4729,5551,5484,4865,5247,3532,2262,1617,1181,811,455]},{"id":"74","name":"18 Av (N)","lat":40.62067,"lng":-73.99042,"byHour":[122,83,68,220,738,2595,5599,11748,9845,6340,4706,3349,3271,4126,4386,4667,4462,4620,3356,2315,1743,905,555,273]},{"id":"75","name":"20 Av (N)","lat":40.61741,"lng":-73.98502,"byHour":[53,44,59,102,547,2140,5897,11583,10084,5618,3324,2651,3400,5412,11394,4223,7142,2609,2168,1272,825,506,425,139]},{"id":"76","name":"Bay Pkwy (N)","lat":40.611816,"lng":-73.98185,"byHour":[132,71,122,274,958,3580,10768,20272,15550,9295,6328,5017,4960,5054,5303,5289,5362,4596,3500,2208,1578,1018,699,308]},{"id":"77","name":"Kings Hwy (N)","lat":40.603924,"lng":-73.980354,"byHour":[160,67,109,215,930,3407,8921,17592,14502,8428,5454,3756,3508,4113,4406,3539,3701,4191,3051,1937,1365,928,613,247]},{"id":"78","name":"Avenue U (N)","lat":40.597473,"lng":-73.97913,"byHour":[143,64,90,133,489,2034,5101,10038,8894,5512,3335,2300,2095,2577,2891,2958,2918,3055,2538,1475,933,855,628,291]},{"id":"79","name":"86 St (N)","lat":40.59272,"lng":-73.97823,"byHour":[100,31,51,151,314,1167,2795,6319,4902,2913,2038,1758,1703,2133,2505,2878,2152,1922,1408,878,716,498,368,148]},{"id":"8","name":"5 Av/59 St (N,R,W)","lat":40.764812,"lng":-73.97335,"byHour":[1695,410,169,92,88,292,924,2252,3653,4044,5173,7372,9485,11319,16203,24111,32601,42110,31582,18733,10607,8543,8334,4650]},{"id":"80","name":"121 St (J,Z)","lat":40.700493,"lng":-73.82829,"byHour":[289,117,141,241,535,1439,2730,4978,3881,2187,1492,1282,1374,1594,1715,2075,2428,2250,1687,1046,891,662,460,492]},{"id":"81","name":"111 St (J)","lat":40.69742,"lng":-73.83634,"byHour":[122,119,101,249,738,1960,3602,5834,4342,2209,1547,1525,1603,1851,3212,2003,1698,1731,1288,924,633,545,448,224]},{"id":"82","name":"104 St (J,Z)","lat":40.69518,"lng":-73.84433,"byHour":[97,76,104,222,1173,2628,5153,7808,5868,3058,1886,1616,1654,1694,2375,2122,1605,1521,1158,915,768,545,328,208]},{"id":"83","name":"Woodhaven Blvd (J,Z)","lat":40.69388,"lng":-73.85158,"byHour":[254,204,118,413,1220,2962,5778,9767,7787,4489,3086,2578,2646,3234,3803,3610,3314,3180,2457,1963,1530,1271,837,483]},{"id":"84","name":"85 St-Forest Pkwy (J)","lat":40.692436,"lng":-73.86001,"byHour":[66,43,88,135,900,1872,3266,5221,3693,2273,1571,1228,1189,1405,1318,1277,1083,925,792,577,492,321,250,89]},{"id":"85","name":"75 St-Elderts Ln (J,Z)","lat":40.691322,"lng":-73.86714,"byHour":[76,55,106,308,1327,2412,5024,7893,5619,3509,2269,2072,2257,2326,4949,6489,2729,2309,1689,1174,683,509,355,157]},{"id":"86","name":"Cypress Hills (J)","lat":40.68994,"lng":-73.87255,"byHour":[18,24,13,87,289,699,1309,2486,1973,724,469,353,351,528,744,1007,555,436,321,198,131,90,59,43]},{"id":"87","name":"Crescent St (J,Z)","lat":40.683193,"lng":-73.87379,"byHour":[120,114,184,265,1116,2352,4586,7874,6816,3584,2465,2081,2084,2293,2516,2752,2560,2300,1457,1335,1103,682,533,362]},{"id":"88","name":"Norwood Av (J,Z)","lat":40.68141,"lng":-73.880035,"byHour":[78,57,101,161,709,1680,2749,5836,4588,2369,1505,1425,1546,1785,2224,2221,1876,1520,1047,908,710,413,326,188]},{"id":"89","name":"Cleveland St (J)","lat":40.679947,"lng":-73.884636,"byHour":[67,68,69,203,454,1259,2537,5778,4197,2061,1657,1269,1300,1257,1737,1598,1438,1334,1055,931,562,564,323,139]},{"id":"9","name":"57 St-7 Av (N,Q,R,W)","lat":40.764664,"lng":-73.98066,"byHour":[5337,1558,801,441,471,1120,4163,13273,20524,19338,17273,17138,20408,23399,32153,44480,55450,75818,62053,39866,27537,27607,23273,14157]},{"id":"90","name":"Van Siclen Av (J,Z)","lat":40.678024,"lng":-73.891685,"byHour":[119,49,126,91,617,1617,3825,6492,5311,2733,1724,1491,1586,1792,1785,2295,1776,1637,1285,894,646,565,378,192]},{"id":"91","name":"Alabama Av (J)","lat":40.67699,"lng":-73.89865,"byHour":[290,94,118,99,312,839,1484,2989,2499,1609,1054,1080,1248,1489,1920,2192,2250,2298,1829,1359,993,590,499,388]},{"id":"93","name":"Chauncey St (J,Z)","lat":40.68289,"lng":-73.91045,"byHour":[153,62,59,217,334,1037,2187,5298,5679,3254,2158,1923,1931,2324,2145,2199,2464,2563,2128,1400,1085,849,774,477]},{"id":"94","name":"Halsey St (J)","lat":40.68637,"lng":-73.91656,"byHour":[213,123,121,242,795,2125,4834,10096,12127,7865,4871,4253,3905,4136,4278,4207,4087,4487,3515,2656,1747,1291,881,475]},{"id":"95","name":"Gates Av (J,Z)","lat":40.68963,"lng":-73.92227,"byHour":[296,149,128,220,815,2167,5547,12134,15440,9521,5884,5206,4980,5663,6438,6437,6165,5881,4709,3215,2387,1430,1162,701]},{"id":"96","name":"Kosciuszko St (J)","lat":40.69334,"lng":-73.92882,"byHour":[436,219,139,307,748,1963,5062,10131,13215,9160,5407,4519,4246,4729,5974,4731,4898,4717,4181,2757,1942,1441,1175,919]},{"id":"97","name":"Myrtle Av (M,J,Z)","lat":40.69721,"lng":-73.93565,"byHour":[1083,639,518,554,1034,2372,8805,18664,28201,16742,10363,9359,9498,10559,10888,11881,12411,12728,10916,7216,4431,3837,3109,2148]},{"id":"98","name":"Flushing Av (M,J)","lat":40.70026,"lng":-73.941124,"byHour":[711,237,181,233,438,1266,3575,7324,9626,6530,4931,5054,5307,5606,6486,9321,12351,12022,7583,5358,3873,2257,1705,1403]},{"id":"99","name":"Lorimer St (M,J)","lat":40.70387,"lng":-73.94741,"byHour":[460,169,95,98,167,692,2281,6133,7727,4986,3186,2507,2527,2472,4156,4690,4797,5508,4572,2983,2196,1669,1349,992]},{"id":"TRAM1","name":"RI Tramway (Manhattan)","lat":40.761337,"lng":-73.96416,"byHour":[551,200,24,0,0,139,994,1202,1761,2959,4491,5347,5707,6078,7234,8338,8799,10456,10149,7758,5023,3015,2206,1280]},{"id":"TRAM2","name":"RI Tramway (Roosevelt)","lat":40.75734,"lng":-73.95412,"byHour":[463,133,4,0,0,202,1129,5140,6548,4889,4044,4831,5096,5189,5473,6121,6421,6117,6084,6169,3950,2243,1674,994]}]