[{"id":"1","name":"Astoria-Ditmars Blvd (N,W)","lat":40.775036,"lng":-73.91203,"lineColors":["#FCCC0A"],"byDayHour":{"weekday":[40,18,18,21,60,258,716,1631,2147,1056,628,481,450,493,657,579,586,653,499,308,229,166,154,66],"friday":[42,20,14,23,55,231,623,1410,1477,830,564,467,434,469,671,612,647,693,632,423,321,219,188,118],"saturday":[50,28,15,14,22,65,134,212,283,345,377,418,421,435,468,437,360,374,331,265,196,145,132,87],"sunday":[62,25,16,17,28,54,104,154,247,319,377,409,450,437,448,379,340,330,273,242,196,136,129,60]}},{"id":"10","name":"49 St (N,R,W)","lat":40.7599,"lng":-73.98414,"lineColors":["#FCCC0A"],"byDayHour":{"weekday":[258,88,41,24,17,37,121,371,718,822,730,680,693,745,937,1249,1842,3168,2335,1411,1092,1262,1181,584],"friday":[366,119,58,36,22,40,110,344,583,758,766,727,752,825,1003,1251,1720,2080,1588,1171,987,1317,1364,812],"saturday":[377,162,73,38,28,31,49,108,277,502,616,631,621,649,736,904,1151,1085,885,819,778,836,1118,842],"sunday":[399,215,139,62,42,40,65,126,329,563,639,724,757,727,717,944,1155,1239,1020,827,823,912,810,418]}},{"id":"100","name":"Hewes St (M,J)","lat":40.70687,"lng":-73.95343,"lineColors":["#FF6319","#996633"],"byDayHour":{"weekday":[17,7,4,6,10,19,74,166,326,190,111,95,87,83,121,151,161,172,157,107,76,47,36,25],"friday":[22,10,7,5,12,20,63,128,203,138,94,73,80,77,117,191,171,175,167,118,101,89,81,71],"saturday":[30,21,16,5,6,5,10,16,29,41,48,54,77,76,71,76,69,70,75,61,48,45,32,25],"sunday":[27,13,9,7,4,8,9,16,30,50,67,80,72,82,79,72,73,77,66,51,47,26,31,21]}},{"id":"101","name":"Marcy Av (M,J,Z)","lat":40.70836,"lng":-73.957756,"lineColors":["#FF6319","#996633"],"byDayHour":{"weekday":[84,34,17,16,25,73,206,677,1261,805,462,394,400,472,613,749,797,901,735,560,377,264,217,167],"friday":[120,62,33,17,21,66,185,525,787,534,399,381,461,591,702,806,857,838,751,596,405,322,332,315],"saturday":[181,107,64,49,39,51,113,180,279,366,428,514,572,578,634,650,612,613,596,527,396,315,298,247],"sunday":[180,106,77,47,41,49,86,133,231,316,412,520,526,594,590,618,570,535,524,452,318,252,235,152]}},{"id":"103","name":"Bowery (J,Z)","lat":40.72028,"lng":-73.99391,"lineColors":["#996633"],"byDayHour":{"weekday":[53,22,12,6,6,8,18,56,112,89,83,96,110,128,165,194,227,271,236,195,170,170,162,121],"friday":[95,47,18,17,9,11,19,55,82,76,77,84,114,139,185,223,233,264,226,201,200,196,218,237],"saturday":[142,74,58,25,15,9,12,15,26,48,66,67,103,118,143,179,190,202,201,174,151,131,120,128],"sunday":[113,88,55,31,19,7,11,22,30,51,69,75,118,129,155,181,198,196,202,166,129,109,117,81]}},{"id":"107","name":"Broad St (J,Z)","lat":40.706474,"lng":-74.011055,"lineColors":["#996633"],"byDayHour":{"weekday":[41,13,4,4,5,9,46,74,129,101,106,130,175,201,311,485,650,1002,566,274,166,105,94,73],"friday":[62,18,9,7,6,8,39,79,119,91,95,128,197,204,383,459,526,650,409,260,203,127,129,122],"saturday":[64,16,12,3,5,3,11,23,27,45,75,114,151,155,175,176,221,219,213,181,133,99,92,66],"sunday":[44,22,7,9,6,8,14,25,30,43,79,124,154,173,154,184,196,186,172,132,102,55,67,49]}},{"id":"108","name":"Middle Village-Metropolitan Av (M)","lat":40.711395,"lng":-73.8896,"lineColors":["#FF6319"],"byDayHour":{"weekday":[4,4,4,8,27,146,290,508,424,205,130,102,106,136,232,213,301,168,132,81,58,40,30,12],"friday":[4,5,8,4,26,133,266,451,342,183,131,99,99,142,212,198,346,161,125,90,61,36,38,16],"saturday":[7,5,4,2,4,11,20,30,33,37,38,33,45,44,42,41,33,42,30,27,22,20,15,7],"sunday":[4,3,4,2,5,11,15,24,34,37,45,44,45,40,45,40,40,42,35,34,23,16,19,11]}},{"id":"109","name":"Fresh Pond Rd (M)","lat":40.706184,"lng":-73.895874,"lineColors":["#FF6319"],"byDayHour":{"weekday":[9,6,7,5,33,217,471,834,722,350,212,171,158,179,175,208,187,178,133,89,55,38,30,14],"friday":[11,7,8,5,35,217,432,772,565,285,202,165,157,188,172,204,182,207,165,114,86,66,43,28],"saturday":[15,7,5,3,6,22,31,57,71,71,68,67,67,69,69,56,63,59,48,44,26,21,15,7],"sunday":[11,5,3,2,4,19,30,50,73,78,83,86,93,81,83,74,56,51,44,37,25,21,19,14]}},{"id":"110","name":"Forest Av (M)","lat":40.704422,"lng":-73.903076,"lineColors":["#FF6319"],"byDayHour":{"weekday":[6,3,3,5,23,198,357,637,595,318,191,153,138,139,179,161,134,144,116,80,52,31,26,11],"friday":[7,7,4,5,18,188,334,560,473,245,162,142,137,147,193,170,143,167,146,103,81,57,41,25],"saturday":[12,7,3,3,7,15,33,42,57,62,62,72,65,68,72,49,48,60,47,44,27,26,23,13],"sunday":[7,4,2,3,6,16,24,39,54,64,68,82,91,86,75,62,57,55,43,34,29,22,23,9]}},{"id":"111","name":"Seneca Av (M)","lat":40.702763,"lng":-73.90774,"lineColors":["#FF6319"],"byDayHour":{"weekday":[6,3,3,6,16,122,204,361,364,206,117,96,83,96,98,89,83,95,86,61,38,26,19,12],"friday":[7,2,2,7,15,104,198,330,268,163,102,94,79,98,95,98,102,112,102,84,56,42,43,26],"saturday":[9,8,5,7,7,14,22,23,45,42,47,46,54,55,48,44,46,40,38,33,26,19,17,10],"sunday":[11,5,2,4,6,11,21,27,40,57,51,61,59,64,59,53,47,41,35,32,25,16,22,10]}},{"id":"113","name":"Knickerbocker Av (M)","lat":40.698666,"lng":-73.91971,"lineColors":["#FF6319"],"byDayHour":{"weekday":[9,4,4,6,10,87,167,409,526,275,171,141,127,151,201,213,192,187,155,104,66,30,27,15],"friday":[7,3,2,6,12,78,149,352,406,232,167,126,163,153,194,189,196,192,167,136,109,68,57,38],"saturday":[18,12,5,4,6,13,18,35,52,67,69,84,84,82,86,70,75,70,77,52,43,33,29,20],"sunday":[16,13,5,5,8,12,25,35,51,74,73,95,84,95,89,91,74,74,62,54,36,27,23,14]}},{"id":"114","name":"Central Av (M)","lat":40.697857,"lng":-73.9274,"lineColors":["#FF6319"],"byDayHour":{"weekday":[14,7,6,5,14,85,159,379,583,327,170,153,130,141,200,161,149,179,144,92,54,40,28,20],"friday":[15,9,6,3,13,75,147,296,400,255,172,150,171,164,189,174,154,193,181,140,93,73,74,62],"saturday":[27,24,20,13,7,8,14,36,42,56,55,76,76,65,66,71,64,63,65,49,39,41,32,24],"sunday":[21,18,14,16,14,11,16,24,36,67,79,85,89,88,89,77,67,55,54,44,30,23,28,15]}},{"id":"118","name":"3 Av (L)","lat":40.73285,"lng":-73.98612,"lineColors":["#A7A9AC"],"byDayHour":{"weekday":[70,25,11,8,7,10,40,108,183,151,134,157,171,204,275,471,480,557,561,483,425,397,351,194],"friday":[112,41,18,9,7,11,36,103,151,137,125,163,179,215,307,492,478,531,513,506,461,399,408,315],"saturday":[159,76,39,24,15,7,14,28,32,47,82,120,154,194,212,242,234,250,262,267,232,225,239,223],"sunday":[168,107,60,41,19,10,11,29,38,65,97,111,183,210,230,253,263,250,256,277,219,199,206,103]}},{"id":"119","name":"1 Av (L)","lat":40.730953,"lng":-73.98163,"lineColors":["#A7A9AC"],"byDayHour":{"weekday":[129,45,25,16,21,67,345,1103,2210,1376,817,758,766,884,1542,1740,1639,1943,1819,1450,1104,898,685,396],"friday":[199,72,37,17,17,60,300,846,1351,973,718,749,840,998,1827,1767,1773,2080,2001,1822,1448,1259,1165,854],"saturday":[374,205,140,60,34,19,55,131,226,327,445,549,696,749,802,863,804,785,806,821,675,607,610,471],"sunday":[448,253,148,82,43,29,47,126,207,324,517,682,811,887,848,835,856,819,787,689,544,426,337,230]}},{"id":"120","name":"Bedford Av (L)","lat":40.717304,"lng":-73.95687,"lineColors":["#A7A9AC"],"byDayHour":{"weekday":[187,77,31,25,34,115,474,1656,3537,2503,1257,1057,1020,1089,1260,1551,1655,2015,2124,1659,1315,1123,1040,625],"friday":[362,148,70,33,35,92,385,1194,1913,1534,1083,1046,1161,1181,1444,1717,1807,2186,2437,2133,1581,1291,1317,1171],"saturday":[609,321,180,96,48,30,64,137,256,450,616,859,1045,1203,1329,1512,1556,1619,1640,1567,1180,925,906,890],"sunday":[807,439,234,114,70,33,74,134,227,423,673,914,1168,1242,1369,1530,1562,1619,1626,1421,1176,861,746,437]}},{"id":"122","name":"Graham Av (L)","lat":40.714565,"lng":-73.94405,"lineColors":["#A7A9AC"],"byDayHour":{"weekday":[32,11,7,5,12,74,214,658,1314,832,413,330,299,305,379,400,438,513,473,320,193,144,198,114],"friday":[69,15,12,7,13,64,180,536,757,529,337,316,297,315,400,426,472,583,550,467,313,197,211,281],"saturday":[110,66,25,11,10,18,37,78,130,169,227,259,270,280,280,256,263,280,283,273,189,158,204,141],"sunday":[94,38,18,13,8,19,35,67,100,153,239,290,316,295,285,266,243,238,223,203,145,191,172,65]}},{"id":"123","name":"Grand St (L)","lat":40.711926,"lng":-73.94067,"lineColors":["#A7A9AC"],"byDayHour":{"weekday":[22,12,10,8,27,79,219,444,587,383,233,199,202,246,623,458,501,393,339,236,162,134,143,60],"friday":[39,23,14,10,26,82,183,363,442,295,216,195,220,290,696,496,432,429,362,271,201,142,201,138],"saturday":[66,31,27,27,24,21,52,80,109,125,115,160,187,190,196,214,189,194,183,168,156,112,130,116],"sunday":[69,53,58,53,29,21,34,58,71,98,152,165,186,179,205,177,180,170,151,136,113,95,94,51]}},{"id":"124","name":"Montrose Av (L)","lat":40.70774,"lng":-73.93985,"lineColors":["#A7A9AC"],"byDayHour":{"weekday":[28,16,12,9,21,84,173,422,821,492,272,235,218,241,357,316,324,369,321,232,165,142,137,72],"friday":[54,25,9,7,21,86,149,359,524,358,248,233,274,252,381,347,355,415,390,325,249,159,154,113],"saturday":[73,47,36,24,17,35,57,75,114,157,226,253,265,256,254,291,236,214,230,218,204,201,210,131],"sunday":[120,76,65,32,28,42,45,56,97,150,210,280,291,290,278,253,228,212,199,169,146,122,81,44]}},{"id":"125","name":"Morgan Av (L)","lat":40.706154,"lng":-73.93314,"lineColors":["#A7A9AC"],"byDayHour":{"weekday":[40,11,7,6,16,70,187,355,626,419,249,232,210,266,335,364,373,447,362,249,188,151,157,99],"friday":[39,13,6,7,16,74,188,316,462,321,243,233,233,279,372,401,404,485,441,350,272,192,163,130],"saturday":[51,26,20,30,30,24,51,77,117,149,208,259,287,292,325,352,293,308,285,235,194,165,158,118],"sunday":[105,50,35,28,24,20,41,63,95,154,223,254,267,308,319,302,326,292,260,215,168,145,112,74]}},{"id":"126","name":"Jefferson St (L)","lat":40.706608,"lng":-73.92291,"lineColors":["#A7A9AC"],"byDayHour":{"weekday":[105,39,23,18,39,130,268,560,800,481,296,266,279,299,340,398,406,459,394,317,235,235,310,199],"friday":[183,86,60,30,47,125,256,520,576,360,272,265,301,308,371,395,439,467,458,370,317,281,450,319],"saturday":[242,174,171,201,149,66,91,110,149,188,212,269,296,320,327,345,321,346,356,296,271,290,346,317],"sunday":[349,263,249,196,143,76,72,92,110,179,241,273,322,323,351,341,358,319,330,330,258,255,270,198]}},{"id":"127","name":"DeKalb Av (L)","lat":40.70381,"lng":-73.91843,"lineColors":["#A7A9AC"],"byDayHour":{"weekday":[31,17,11,17,62,287,625,1175,1515,902,527,460,407,432,499,544,499,558,422,314,207,147,102,67],"friday":[41,18,12,22,62,270,592,1069,1163,693,503,454,423,414,524,544,559,643,562,450,320,225,155,127],"saturday":[69,40,23,25,39,80,155,253,314,388,410,446,450,425,440,413,326,344,327,301,230,178,145,117],"sunday":[96,60,45,32,33,57,106,187,251,357,403,476,492,455,453,422,369,332,293,234,161,115,80,60]}},{"id":"129","name":"Halsey St (L)","lat":40.695602,"lng":-73.90408,"lineColors":["#A7A9AC"],"byDayHour":{"weekday":[21,11,8,12,37,152,333,774,847,500,302,232,209,235,291,285,274,308,259,170,116,100,96,58],"friday":[36,24,20,22,35,141,293,733,722,442,300,272,230,242,315,289,292,355,304,242,169,149,124,118],"saturday":[54,34,37,26,34,60,113,149,187,229,232,226,229,254,247,226,214,204,199,154,120,116,101,76],"sunday":[68,55,49,46,39,47,84,121,163,212,236,255,259,263,277,252,212,188,197,203,198,181,87,55]}},{"id":"13","name":"28 St (R,W)","lat":40.745495,"lng":-73.98869,"lineColors":["#FCCC0A"],"byDayHour":{"weekday":[120,46,19,8,8,12,54,210,445,435,345,354,400,453,478,622,838,1284,1094,662,545,454,364,299],"friday":[159,68,37,12,9,11,45,163,306,323,324,355,385,506,518,626,791,923,847,597,460,441,427,409],"saturday":[226,100,82,31,11,8,21,66,108,189,274,309,353,449,448,489,513,514,500,490,406,332,359,357],"sunday":[275,158,90,49,20,15,25,55,137,231,295,345,414,429,427,471,500,505,491,388,326,324,275,229]}},{"id":"130","name":"Wilson Av (L)","lat":40.688763,"lng":-73.904045,"lineColors":["#A7A9AC"],"byDayHour":{"weekday":[11,5,5,8,22,108,219,449,509,292,183,154,144,160,197,215,173,183,152,99,73,50,42,30],"friday":[17,7,8,5,24,100,215,428,415,221,177,167,167,168,219,192,183,175,186,157,111,88,83,48],"saturday":[24,12,11,8,13,27,48,78,116,138,150,150,167,147,131,139,126,114,114,96,79,63,53,47],"sunday":[34,17,10,7,16,19,34,75,110,133,163,173,175,176,159,153,132,112,112,84,65,55,39,27]}},{"id":"131","name":"Bushwick Av-Aberdeen St (L)","lat":40.68283,"lng":-73.90525,"lineColors":["#A7A9AC"],"byDayHour":{"weekday":[6,2,1,5,14,61,118,290,258,148,93,85,77,90,106,144,113,114,98,82,48,31,26,15],"friday":[9,4,2,2,12,48,107,279,224,128,94,81,129,117,108,126,119,131,117,94,77,54,45,26],"saturday":[9,4,2,4,4,17,35,50,68,91,90,100,104,97,89,98,77,80,74,70,58,40,44,32],"sunday":[22,10,6,6,3,12,26,40,63,80,110,104,114,105,119,102,88,82,63,61,48,29,23,16]}},{"id":"133","name":"Atlantic Av (L)","lat":40.675346,"lng":-73.9031,"lineColors":["#A7A9AC"],"byDayHour":{"weekday":[12,4,1,6,9,37,94,222,165,80,49,39,41,54,59,118,116,140,109,55,34,23,17,16],"friday":[13,5,3,5,7,31,97,219,148,77,39,45,53,67,61,116,121,133,91,64,33,17,24,19],"saturday":[13,7,1,2,2,9,21,33,41,40,30,30,25,37,36,36,48,39,31,31,29,22,18,19],"sunday":[19,7,2,3,3,7,21,31,35,35,38,30,32,43,41,39,29,35,29,26,17,15,17,11]}},{"id":"134","name":"Sutter Av (L)","lat":40.66937,"lng":-73.90198,"lineColors":["#A7A9AC"],"byDayHour":{"weekday":[13,7,7,15,30,95,190,359,294,143,98,88,92,109,120,163,155,136,89,63,47,43,33,18],"friday":[13,7,9,18,32,95,184,350,276,130,97,88,90,116,123,155,149,118,93,77,53,38,42,26],"saturday":[9,6,6,7,12,25,41,68,75,52,56,68,59,78,71,71,58,52,50,49,32,28,24,14],"sunday":[15,5,7,7,13,26,41,54,66,63,60,58,61,63,87,55,49,34,36,29,26,23,21,11]}},{"id":"135","name":"Livonia Av (L)","lat":40.66404,"lng":-73.90057,"lineColors":["#A7A9AC"],"byDayHour":{"weekday":[8,7,7,8,19,64,169,315,240,127,77,68,73,96,112,137,134,143,105,89,62,46,31,21],"friday":[7,4,5,7,23,56,154,298,222,118,75,63,79,96,124,148,148,141,95,92,59,56,39,21],"saturday":[9,5,7,4,10,18,42,57,67,47,52,50,56,65,70,62,69,69,59,54,36,35,27,25],"sunday":[11,6,5,4,6,16,40,51,49,63,61,55,52,73,75,70,56,55,42,53,46,36,28,22]}},{"id":"136","name":"New Lots Av (L)","lat":40.658733,"lng":-73.89923,"lineColors":["#A7A9AC"],"byDayHour":{"weekday":[14,7,9,15,48,135,276,420,306,164,113,96,98,120,134,127,147,127,89,60,56,47,32,20],"friday":[11,5,8,16,49,124,261,404,291,142,96,89,109,140,129,132,145,124,89,65,62,52,36,24],"saturday":[12,4,5,7,15,38,66,84,89,71,63,69,68,69,81,69,66,65,45,35,36,32,27,15],"sunday":[18,8,6,10,15,30,62,62,85,75,62,58,61,85,88,64,50,39,38,33,36,37,29,23]}},{"id":"137","name":"East 105 St (L)","lat":40.650574,"lng":-73.89948,"lineColors":["#A7A9AC"],"byDayHour":{"weekday":[16,5,4,8,22,88,188,344,268,142,86,73,74,91,99,118,127,110,72,60,50,38,42,22],"friday":[14,5,5,9,23,77,169,321,242,130,69,71,72,90,108,115,112,108,79,63,50,36,31,28],"saturday":[12,5,4,4,10,19,35,50,56,47,46,48,52,57,55,56,63,46,44,39,35,27,21,13],"sunday":[14,5,5,4,11,21,32,33,46,35,48,44,55,54,62,61,32,32,28,31,30,24,24,15]}},{"id":"138","name":"Canarsie-Rockaway Pkwy (L)","lat":40.646652,"lng":-73.90185,"lineColors":["#A7A9AC"],"byDayHour":{"weekday":[8,6,6,16,37,90,180,284,239,134,90,85,91,98,113,105,114,111,83,58,46,39,28,14],"friday":[8,9,7,16,35,84,161,256,198,116,81,84,80,83,106,113,114,110,83,59,48,40,35,12],"saturday":[9,7,4,6,13,25,42,43,45,49,51,54,56,58,60,58,54,48,48,35,29,23,20,10],"sunday":[9,6,4,6,16,29,40,40,42,47,50,49,65,64,63,59,40,45,39,35,27,23,25,16]}},{"id":"14","name":"23 St (R,W)","lat":40.741302,"lng":-73.98934,"lineColors":["#FCCC0A"],"byDayHour":{"weekday":[86,23,14,7,11,18,73,298,701,576,492,549,709,745,1047,1270,1646,2207,1753,1219,840,637,355,235],"friday":[127,35,16,10,10,20,57,221,431,379,399,514,634,738,1091,1220,1336,1439,1241,906,634,485,391,328],"saturday":[173,67,34,21,15,13,28,53,108,173,294,448,595,672,810,889,874,812,820,701,467,345,297,273],"sunday":[178,94,43,30,26,15,30,68,106,167,289,440,554,699,802,797,839,865,750,550,404,304,261,181]}},{"id":"141","name":"Park Pl (S)","lat":40.67477,"lng":-73.95763,"lineColors":["#808183"],"byDayHour":{"weekday":[4,1,0,2,5,12,47,151,184,97,66,57,55,60,82,105,96,109,78,50,35,21,17,14],"friday":[4,3,1,3,4,13,44,129,144,73,53,55,55,54,97,109,101,111,77,56,37,26,18,20],"saturday":[4,3,2,2,1,3,7,23,27,40,44,46,50,54,51,57,48,47,48,37,33,19,18,15],"sunday":[5,4,3,3,1,4,9,14,21,32,51,59,57,59,57,58,51,50,36,31,25,16,16,11]}},{"id":"143","name":"Inwood-207 St (A)","lat":40.868073,"lng":-73.9199,"lineColors":["#0039A6"],"byDayHour":{"weekday":[32,18,13,19,61,185,427,951,972,505,300,268,283,323,343,401,372,352,261,160,110,96,71,44],"friday":[36,16,20,18,56,172,381,850,779,420,285,266,280,335,354,410,385,363,289,219,141,107,76,39],"saturday":[29,16,14,14,24,61,104,151,193,215,233,247,259,251,250,236,226,206,179,135,90,66,50,28],"sunday":[30,17,15,13,25,57,94,124,169,185,220,239,246,257,250,222,186,168,140,118,103,72,55,25]}},{"id":"144","name":"Dyckman St (A)","lat":40.86549,"lng":-73.92727,"lineColors":["#0039A6"],"byDayHour":{"weekday":[12,7,6,7,32,132,309,631,656,374,229,203,205,235,274,312,301,267,196,118,89,53,42,24],"friday":[10,9,7,7,31,128,283,582,533,325,219,199,195,271,309,336,324,290,233,149,100,62,49,32],"saturday":[14,8,9,6,19,36,57,107,134,143,159,183,207,230,232,247,233,205,132,110,77,65,38,27],"sunday":[22,11,10,10,15,28,54,81,119,149,164,190,212,237,223,242,225,213,135,100,77,63,41,21]}},{"id":"145","name":"190 St (A)","lat":40.85902,"lng":-73.93418,"lineColors":["#0039A6"],"byDayHour":{"weekday":[4,4,3,4,15,74,181,533,565,308,174,145,155,164,184,188,230,220,141,71,44,29,19,16],"friday":[4,6,5,3,13,74,153,455,417,245,170,143,153,148,214,192,263,241,172,89,57,31,26,22],"saturday":[10,3,3,3,3,25,40,70,100,129,137,154,159,136,151,163,148,126,91,67,43,24,17,15],"sunday":[4,5,4,4,3,19,34,54,81,122,148,167,180,167,171,155,152,125,87,59,39,20,17,12]}},{"id":"146","name":"181 St (A)","lat":40.851696,"lng":-73.937965,"lineColors":["#0039A6"],"byDayHour":{"weekday":[9,4,3,8,25,135,386,1030,1157,669,408,345,316,339,375,367,414,413,284,147,91,70,47,18],"friday":[9,4,2,7,25,122,348,914,897,552,361,336,303,357,365,378,424,436,361,205,115,88,72,37],"saturday":[16,8,4,3,11,32,73,143,228,275,294,315,342,290,271,250,222,231,211,146,101,61,56,30],"sunday":[16,7,4,6,11,29,61,117,205,291,302,331,380,358,306,254,235,179,174,127,77,58,38,21]}},{"id":"147","name":"175 St (A)","lat":40.84739,"lng":-73.939705,"lineColors":["#0039A6"],"byDayHour":{"weekday":[21,11,10,11,60,237,539,969,1060,708,442,372,354,381,405,416,461,480,378,243,159,107,87,40],"friday":[23,12,12,10,53,226,500,808,827,549,396,385,348,377,425,450,475,528,451,300,204,135,113,63],"saturday":[24,12,8,9,19,71,121,178,240,253,268,310,306,310,318,291,233,251,235,186,159,101,85,51],"sunday":[33,13,10,10,19,61,96,139,199,237,287,329,326,353,325,309,239,243,233,166,146,125,69,33]}},{"id":"149","name":"163 St-Amsterdam Av (C)","lat":40.836014,"lng":-73.939896,"lineColors":["#0039A6"],"byDayHour":{"weekday":[7,4,6,11,42,111,241,412,391,227,160,148,134,169,187,193,177,152,116,77,51,43,33,16],"friday":[8,4,5,11,38,106,228,399,348,211,147,133,135,157,201,205,178,159,134,97,63,48,42,22],"saturday":[12,5,5,10,16,38,61,78,110,114,112,117,106,115,113,108,96,95,71,62,41,31,29,21],"sunday":[13,7,6,9,17,33,56,71,99,116,118,143,126,132,148,120,95,100,63,55,39,33,27,16]}},{"id":"150","name":"155 St (C)","lat":40.830517,"lng":-73.94151,"lineColors":["#0039A6"],"byDayHour":{"weekday":[6,3,3,5,20,47,109,248,249,142,92,86,83,97,137,132,94,94,66,43,29,23,21,12],"friday":[6,3,3,5,19,47,110,239,214,130,90,92,97,93,139,134,104,102,76,56,38,25,20,12],"saturday":[5,4,2,6,7,17,28,50,65,77,70,78,78,86,73,77,60,63,51,38,30,21,24,12],"sunday":[11,6,3,4,7,17,32,42,49,89,84,81,104,91,77,71,60,64,46,27,28,19,17,10]}},{"id":"151","name":"145 St (A,C,B,D)","lat":40.824783,"lng":-73.944214,"lineColors":["#0039A6","#FF6319"],"byDayHour":{"weekday":[55,33,27,50,123,377,899,1868,2015,1267,863,798,889,969,1049,1496,1386,1364,1226,722,507,346,218,125],"friday":[60,34,25,48,119,330,823,1678,1654,1038,776,800,886,927,1088,1338,1161,1128,933,632,473,360,259,188],"saturday":[82,47,28,27,57,132,261,385,497,619,622,626,676,675,665,636,570,541,512,405,324,278,200,128],"sunday":[85,51,33,41,60,143,240,351,470,579,649,744,785,758,788,656,585,538,465,338,277,237,177,101]}},{"id":"152","name":"135 St (C,B)","lat":40.817894,"lng":-73.94765,"lineColors":["#0039A6","#FF6319"],"byDayHour":{"weekday":[15,9,6,9,13,38,130,408,469,296,206,190,240,243,438,453,433,427,318,195,103,54,37,23],"friday":[15,11,6,9,12,32,121,377,373,256,186,199,243,250,476,394,348,350,251,163,104,71,55,31],"saturday":[19,10,6,6,7,15,28,42,93,101,132,131,152,151,138,142,122,124,112,80,57,43,37,28],"sunday":[23,12,10,7,10,12,25,41,84,131,150,173,200,193,165,163,143,113,101,80,63,45,32,23]}},{"id":"153","name":"125 St (A,C,B,D)","lat":40.811108,"lng":-73.95235,"lineColors":["#0039A6","#FF6319"],"byDayHour":{"weekday":[127,45,27,47,79,229,732,1629,2014,1278,898,890,909,1027,1345,1733,1983,2099,1535,1062,762,576,391,229],"friday":[107,56,30,49,83,208,675,1494,1650,1043,855,861,909,1075,1438,1728,1913,1934,1529,1077,776,540,430,290],"saturday":[136,59,39,35,45,86,189,292,392,525,605,683,758,768,785,809,764,746,706,668,487,369,299,210],"sunday":[166,70,45,41,49,68,164,292,384,492,606,924,1014,1008,972,847,812,767,755,604,465,329,272,173]}},{"id":"154","name":"116 St (C,B)","lat":40.805084,"lng":-73.95488,"lineColors":["#0039A6","#FF6319"],"byDayHour":{"weekday":[22,9,6,10,13,45,173,571,649,384,253,218,224,234,293,365,327,369,300,193,134,85,66,42],"friday":[18,10,8,7,9,38,150,517,532,300,235,224,228,219,323,358,353,380,357,241,179,127,96,65],"saturday":[32,15,8,5,7,11,39,65,112,155,183,193,214,237,225,213,195,206,195,161,124,101,75,60],"sunday":[49,19,10,9,9,15,41,67,100,153,204,280,347,291,288,230,213,213,186,151,119,95,59,29]}},{"id":"155","name":"Cathedral Pkwy (110 St) (C,B)","lat":40.800602,"lng":-73.95816,"lineColors":["#0039A6","#FF6319"],"byDayHour":{"weekday":[22,9,7,7,15,47,162,586,804,492,314,270,262,291,306,447,434,468,405,239,146,92,68,51],"friday":[32,6,10,8,13,38,153,513,616,417,295,294,286,290,328,487,475,530,483,338,213,162,123,92],"saturday":[37,16,8,7,9,11,34,91,135,198,220,304,331,300,273,271,262,266,250,217,161,107,72,48],"sunday":[38,20,6,8,10,14,39,73,135,204,285,311,372,373,324,296,265,248,220,165,128,83,63,45]}},{"id":"156","name":"103 St (C,B)","lat":40.796093,"lng":-73.96146,"lineColors":["#0039A6","#FF6319"],"byDayHour":{"weekday":[10,4,3,4,11,32,117,355,493,294,193,175,178,174,190,259,271,268,240,145,93,56,33,22],"friday":[13,4,2,2,9,27,96,319,361,261,182,174,188,174,209,238,280,298,282,181,134,84,54,39],"saturday":[12,8,3,2,7,9,25,50,82,120,134,164,163,160,166,155,148,140,161,144,77,60,52,37],"sunday":[20,9,3,5,8,11,24,44,86,122,174,182,209,177,180,164,156,169,133,105,61,42,32,20]}},{"id":"157","name":"96 St (C,B)","lat":40.79164,"lng":-73.9647,"lineColors":["#0039A6","#FF6319"],"byDayHour":{"weekday":[24,6,3,3,5,16,118,488,807,511,337,319,328,360,496,830,925,970,716,412,227,126,85,60],"friday":[24,5,5,3,7,15,100,394,588,388,293,313,322,356,509,846,829,907,691,416,256,138,91,81],"saturday":[24,8,5,3,4,6,22,51,93,121,176,231,280,298,285,319,291,304,282,224,137,87,61,52],"sunday":[32,8,5,4,3,3,18,43,84,134,190,244,342,359,358,337,324,332,303,265,121,72,62,42]}},{"id":"158","name":"86 St (C,B)","lat":40.78587,"lng":-73.96892,"lineColors":["#0039A6","#FF6319"],"byDayHour":{"weekday":[22,8,3,3,4,27,133,519,1058,565,373,342,370,418,594,1032,1098,1033,831,467,291,188,123,67],"friday":[30,8,4,3,3,27,110,414,659,397,337,320,378,445,619,1090,1022,1004,831,524,337,264,177,120],"saturday":[48,15,7,6,3,6,24,60,103,153,209,273,375,371,358,394,427,488,486,369,230,208,318,136],"sunday":[54,23,8,5,4,10,36,54,86,147,221,303,424,430,396,408,469,489,387,285,163,119,74,50]}},{"id":"159","name":"81 St-Museum of Natural History (C,B)","lat":40.781433,"lng":-73.972145,"lineColors":["#0039A6","#FF6319"],"byDayHour":{"weekday":[30,13,6,4,2,18,79,306,664,409,272,321,469,601,804,1063,1321,1570,770,458,286,190,134,104],"friday":[34,12,7,5,3,17,65,248,427,316,251,296,476,643,870,1160,1252,1463,887,540,351,223,190,154],"saturday":[50,18,11,9,4,6,19,44,72,115,167,273,479,632,637,824,1010,1352,611,643,365,526,786,148],"sunday":[75,27,16,7,4,8,19,37,65,128,206,388,714,808,905,985,1153,1499,584,341,159,133,102,87]}},{"id":"16","name":"8 St-NYU (R,W)","lat":40.730328,"lng":-73.99263,"lineColors":["#FCCC0A"],"byDayHour":{"weekday":[107,34,22,10,12,22,93,356,997,671,443,424,599,686,736,1052,1281,1523,1477,1021,894,741,443,264],"friday":[150,56,26,17,15,23,85,252,528,441,387,443,580,711,811,1026,1139,1313,1163,942,775,726,528,506],"saturday":[313,156,105,44,22,17,34,56,96,169,247,336,487,587,651,778,797,826,882,872,659,610,561,506],"sunday":[355,200,128,67,34,19,33,50,94,187,279,389,542,632,711,776,827,828,814,738,583,566,416,252]}},{"id":"160","name":"72 St (C,B)","lat":40.775593,"lng":-73.97641,"lineColors":["#0039A6","#FF6319"],"byDayHour":{"weekday":[22,8,3,2,4,8,77,323,551,424,313,328,381,459,537,743,910,923,806,559,312,222,191,67],"friday":[33,7,3,2,2,9,68,261,357,285,279,324,458,511,638,806,914,928,861,619,356,306,207,114],"saturday":[43,12,4,3,3,4,10,32,69,105,182,283,403,433,462,583,611,657,639,610,347,247,252,93],"sunday":[46,15,7,3,3,6,13,34,76,113,227,332,465,509,524,566,673,694,657,444,205,144,97,46]}},{"id":"162","name":"50 St (C,E)","lat":40.762455,"lng":-73.985985,"lineColors":["#0039A6"],"byDayHour":{"weekday":[178,72,37,35,30,61,195,649,1021,900,738,641,635,754,1145,1494,1621,1925,1430,1012,825,929,717,425],"friday":[210,77,50,43,30,55,175,549,749,794,707,689,676,756,1243,1485,1504,1577,1295,1043,876,1031,1215,872],"saturday":[354,169,101,64,50,37,73,126,294,456,665,613,657,699,748,797,1041,958,842,686,608,674,952,759],"sunday":[463,248,155,108,80,44,88,156,323,690,795,807,809,775,797,819,995,1013,859,698,621,775,581,309]}},{"id":"164","name":"34 St-Penn Station (A,C,E)","lat":40.75229,"lng":-73.99339,"lineColors":["#0039A6"],"byDayHour":{"weekday":[437,148,73,50,79,744,2127,4741,6700,4902,2938,2543,2392,2602,2863,3326,4148,6498,5276,3401,2476,2145,1580,912],"friday":[781,182,64,46,56,664,1689,3380,3659,2928,2410,2283,2293,2653,2947,3165,4018,5068,4162,3263,2495,2096,1929,1329],"saturday":[699,271,127,87,78,127,388,530,799,1237,1689,2006,2182,2275,2305,2356,2335,2381,2367,2043,1694,1516,1509,1233],"sunday":[746,403,152,92,73,122,336,461,863,1418,1932,2266,2686,2728,2781,2497,2792,3065,2780,2331,1883,1853,1315,1004]}},{"id":"165","name":"23 St (C,E)","lat":40.745907,"lng":-73.99804,"lineColors":["#0039A6"],"byDayHour":{"weekday":[75,32,16,16,20,54,200,696,1368,925,659,634,687,738,1001,1633,1603,1977,1749,1161,960,721,410,212],"friday":[102,40,19,12,16,42,179,555,912,677,577,605,721,804,1013,1683,1593,1698,1558,1165,830,616,547,403],"saturday":[186,86,57,43,34,18,44,94,176,287,354,486,580,617,666,747,734,752,830,641,445,370,327,293],"sunday":[238,111,65,50,37,20,48,88,192,322,422,529,615,652,645,633,638,677,636,498,396,359,289,168]}},{"id":"167","name":"W 4 St-Wash Sq (A,C,E,B,D,F,M)","lat":40.732338,"lng":-74.000496,"lineColors":["#0039A6","#FF6319"],"byDayHour":{"weekday":[572,235,119,61,48,96,340,895,2057,1355,873,890,1164,1463,1715,2653,3128,3586,3312,2708,2430,2540,1849,1277],"friday":[862,367,156,77,67,93,284,635,1190,952,796,913,1232,1512,2003,2909,3059,3217,3031,2698,2330,2504,2413,2212],"saturday":[1252,667,413,192,114,78,98,142,238,382,573,796,1147,1412,1540,1751,1937,1958,2000,1961,1708,1656,1717,1687],"sunday":[1351,737,473,239,138,65,115,142,234,407,612,854,1256,1505,1648,1757,1901,1865,1826,1760,1528,1555,1414,1027]}},{"id":"168","name":"Spring St (C,E)","lat":40.726227,"lng":-74.00374,"lineColors":["#0039A6"],"byDayHour":{"weekday":[43,17,9,6,5,18,59,195,518,358,285,327,441,517,715,1050,1304,1795,1447,928,581,400,259,164],"friday":[65,25,15,6,5,19,47,147,301,260,253,319,453,547,750,1029,1032,1137,975,744,517,418,327,266],"saturday":[121,44,28,13,9,6,13,30,51,83,123,192,302,362,476,533,636,632,564,555,341,258,232,187],"sunday":[126,57,27,16,10,7,14,23,47,93,142,199,286,372,437,493,581,579,581,419,284,238,165,102]}},{"id":"169","name":"Canal St (A,C,E)","lat":40.720825,"lng":-74.005226,"lineColors":["#0039A6"],"byDayHour":{"weekday":[89,33,16,10,11,29,101,289,474,369,360,395,492,559,731,1071,1682,2494,1973,1191,704,471,307,195],"friday":[126,51,27,14,12,30,92,228,300,280,327,382,519,611,841,1108,1443,1627,1333,986,706,512,465,371],"saturday":[209,93,66,38,18,22,35,53,78,121,172,231,285,385,443,574,626,604,642,605,419,342,334,262],"sunday":[206,103,68,41,24,18,29,54,78,122,191,237,302,367,418,480,532,534,566,447,320,256,201,135]}},{"id":"17","name":"Prince St (R,W)","lat":40.72433,"lng":-73.9977,"lineColors":["#FCCC0A"],"byDayHour":{"weekday":[60,23,15,9,6,9,24,97,238,221,209,298,412,511,584,725,895,1200,1133,852,466,321,224,156],"friday":[93,38,16,13,6,10,22,79,154,162,192,332,422,554,643,845,1018,1123,1016,885,512,342,263,272],"saturday":[159,69,43,28,10,7,12,21,36,81,138,274,440,615,850,1059,1188,1196,1083,1017,595,370,280,240],"sunday":[186,106,69,34,23,9,13,22,34,60,112,236,413,620,770,952,1056,1102,1127,763,426,282,222,115]}},{"id":"173","name":"High St (A,C)","lat":40.699337,"lng":-73.99053,"lineColors":["#0039A6"],"byDayHour":{"weekday":[23,7,5,3,4,13,82,336,698,408,242,242,264,300,384,526,612,792,670,456,377,256,143,57],"friday":[26,11,8,2,3,12,70,268,427,268,210,275,287,374,456,611,655,701,565,471,391,281,191,135],"saturday":[45,18,6,2,1,5,14,37,56,83,129,176,259,306,331,361,348,344,291,315,239,179,131,99],"sunday":[44,12,8,3,4,5,8,23,42,69,105,155,209,230,254,273,283,292,286,260,204,149,94,51]}},{"id":"175","name":"Hoyt-Schermerhorn Sts (A,C,G)","lat":40.688484,"lng":-73.985,"lineColors":["#0039A6","#6CBE45"],"byDayHour":{"weekday":[58,20,13,8,15,28,128,378,703,525,421,399,437,433,530,753,872,1088,817,574,426,315,224,182],"friday":[67,19,18,10,20,29,105,301,462,405,388,412,458,467,552,801,862,1038,844,620,438,344,313,273],"saturday":[100,44,24,12,12,10,32,70,112,175,256,338,405,427,451,507,481,505,486,407,302,258,243,183],"sunday":[129,59,28,15,16,13,35,62,112,188,277,364,423,456,468,497,512,511,495,390,295,244,200,138]}},{"id":"176","name":"Lafayette Av (C)","lat":40.68611,"lng":-73.973946,"lineColors":["#0039A6"],"byDayHour":{"weekday":[41,13,7,6,12,33,89,225,395,313,180,166,182,206,308,412,349,369,324,229,179,177,141,129],"friday":[38,16,9,7,12,29,87,201,260,208,156,160,204,227,378,452,337,374,364,264,210,180,162,253],"saturday":[72,25,8,11,7,9,18,39,65,78,112,174,212,223,242,251,227,221,237,208,179,148,123,183],"sunday":[81,31,20,9,11,13,27,38,65,97,133,180,217,233,244,245,266,317,305,224,169,133,87,65]}},{"id":"177","name":"Clinton-Washington Avs (C)","lat":40.68326,"lng":-73.965836,"lineColors":["#0039A6"],"byDayHour":{"weekday":[16,7,4,4,9,33,156,534,1053,671,321,269,245,240,266,357,412,518,400,198,118,105,76,44],"friday":[25,8,9,4,7,32,131,410,589,407,277,248,267,269,293,370,422,546,449,283,181,140,106,74],"saturday":[36,14,10,3,4,11,24,54,96,163,193,253,266,248,218,235,226,230,230,187,128,119,93,72],"sunday":[53,23,9,6,7,8,27,42,88,151,235,282,309,303,274,230,210,210,186,137,96,85,50,33]}},{"id":"179","name":"Nostrand Av (A,C)","lat":40.68044,"lng":-73.950424,"lineColors":["#0039A6"],"byDayHour":{"weekday":[49,21,18,19,46,162,521,1337,2039,1359,764,627,608,607,663,792,804,946,791,520,356,234,181,89],"friday":[49,17,18,17,42,146,463,1120,1397,974,682,589,651,672,713,833,862,934,894,613,433,329,240,137],"saturday":[66,29,20,15,21,55,128,217,327,416,476,548,554,566,564,504,485,470,443,403,305,221,184,113],"sunday":[79,42,21,17,21,52,105,173,302,383,500,546,586,593,582,516,472,430,413,312,237,172,146,72]}},{"id":"180","name":"Kingston-Throop Avs (C)","lat":40.67992,"lng":-73.94086,"lineColors":["#0039A6"],"byDayHour":{"weekday":[19,9,8,16,19,80,207,534,770,501,304,260,248,273,323,355,338,346,276,179,95,64,49,41],"friday":[19,9,8,15,20,66,190,479,559,354,279,270,323,286,339,351,350,369,307,245,140,93,80,60],"saturday":[22,15,10,12,16,24,43,84,137,201,212,231,233,227,224,206,198,206,161,149,108,71,56,46],"sunday":[39,21,13,14,15,26,51,73,117,178,231,242,261,292,254,219,179,172,156,113,81,57,55,38]}},{"id":"181","name":"Utica Av (A,C)","lat":40.679363,"lng":-73.93073,"lineColors":["#0039A6"],"byDayHour":{"weekday":[32,17,14,25,76,197,535,1210,1531,935,574,454,417,448,496,523,531,557,470,347,240,198,143,76],"friday":[39,17,15,25,66,187,496,1087,1167,704,522,463,451,464,558,573,525,587,554,383,285,231,169,107],"saturday":[46,21,13,13,28,66,156,252,314,391,403,418,454,428,409,373,327,319,302,298,201,181,140,85],"sunday":[70,31,17,18,30,77,138,211,286,367,432,451,468,485,471,387,311,311,257,225,185,151,111,52]}},{"id":"182","name":"Ralph Av (C)","lat":40.67882,"lng":-73.920784,"lineColors":["#0039A6"],"byDayHour":{"weekday":[12,9,6,10,39,99,251,544,514,311,209,184,169,205,189,206,195,192,160,116,80,63,41,26],"friday":[9,10,6,10,38,84,233,521,441,254,202,185,179,191,211,214,194,192,172,154,109,85,54,42],"saturday":[17,10,6,6,19,30,65,98,129,157,163,164,176,175,158,158,125,117,108,110,78,52,58,38],"sunday":[27,12,12,8,18,30,70,81,117,146,191,186,187,171,195,162,124,110,97,92,65,54,40,20]}},{"id":"183","name":"Rockaway Av (C)","lat":40.67834,"lng":-73.91195,"lineColors":["#0039A6"],"byDayHour":{"weekday":[14,9,6,13,38,130,300,643,563,324,234,200,186,215,268,264,224,205,164,112,80,67,44,26],"friday":[13,8,10,17,39,123,283,588,488,291,196,198,235,260,296,248,216,221,186,132,115,78,67,53],"saturday":[19,10,10,9,21,43,66,109,148,163,163,166,164,154,175,144,128,121,113,112,87,71,53,39],"sunday":[28,17,12,9,15,44,52,86,126,151,162,163,169,176,175,156,138,120,112,86,75,51,34,24]}},{"id":"185","name":"Liberty Av (C)","lat":40.67454,"lng":-73.896545,"lineColors":["#0039A6"],"byDayHour":{"weekday":[10,3,4,4,18,72,129,264,182,114,90,72,72,92,132,140,124,131,66,46,32,23,16,11],"friday":[14,5,3,4,15,66,108,235,161,100,88,68,75,81,150,146,123,109,67,47,33,27,19,13],"saturday":[10,3,2,2,8,22,31,38,46,48,46,51,52,42,45,46,44,37,27,25,19,16,14,8],"sunday":[12,6,3,6,11,22,26,37,42,46,58,53,53,50,64,56,44,35,27,25,19,12,16,11]}},{"id":"186","name":"Van Siclen Av (C)","lat":40.67271,"lng":-73.89036,"lineColors":["#0039A6"],"byDayHour":{"weekday":[7,4,5,10,36,97,188,351,246,130,86,74,70,89,104,142,81,71,52,36,28,29,18,9],"friday":[6,4,5,9,38,79,175,324,228,105,78,66,86,88,125,124,82,66,53,44,32,35,23,11],"saturday":[6,4,3,3,14,27,43,58,72,57,58,53,50,64,53,50,39,40,34,33,29,22,14,12],"sunday":[11,4,4,6,9,26,40,60,69,59,58,61,56,63,68,51,43,39,34,32,26,23,17,11]}},{"id":"187","name":"Shepherd Av (C)","lat":40.67413,"lng":-73.88075,"lineColors":["#0039A6"],"byDayHour":{"weekday":[7,6,5,12,29,125,198,347,234,129,91,83,79,86,107,100,90,75,53,40,26,25,22,11],"friday":[7,5,5,9,25,117,169,335,225,121,92,83,87,89,109,95,89,70,56,46,22,30,20,12],"saturday":[8,4,2,5,11,31,45,57,86,59,53,55,55,55,56,49,37,40,32,26,25,22,17,8],"sunday":[6,4,4,5,9,37,45,53,63,53,57,59,67,59,67,39,41,45,33,26,25,19,19,9]}},{"id":"188","name":"Euclid Av (A,C)","lat":40.675377,"lng":-73.87211,"lineColors":["#0039A6"],"byDayHour":{"weekday":[36,23,25,64,166,285,681,1315,987,519,375,270,302,337,357,421,347,306,185,140,108,115,83,52],"friday":[34,25,21,63,176,266,621,1243,848,472,344,262,305,330,365,397,331,312,222,162,117,129,75,41],"saturday":[33,16,15,21,70,140,332,467,520,413,344,308,328,332,355,376,304,279,231,156,133,149,84,59],"sunday":[35,26,19,19,56,131,265,373,435,408,361,293,332,355,363,315,261,247,182,150,120,128,74,51]}},{"id":"189","name":"Grant Av (A)","lat":40.677044,"lng":-73.86505,"lineColors":["#0039A6"],"byDayHour":{"weekday":[3,2,1,3,27,172,392,768,578,297,204,163,151,193,183,183,168,142,101,70,54,49,28,16],"friday":[0,0,0,0,14,167,359,732,538,259,192,159,146,166,204,195,160,142,123,87,60,59,35,19],"saturday":[5,3,2,4,12,23,48,77,69,66,58,54,47,57,53,54,54,39,31,30,21,17,12,6],"sunday":[3,3,5,2,15,27,51,76,75,77,76,71,61,78,71,68,64,53,50,28,26,23,14,10]}},{"id":"190","name":"80 St (A)","lat":40.67937,"lng":-73.85899,"lineColors":["#0039A6"],"byDayHour":{"weekday":[2,2,1,3,26,179,347,622,478,270,179,141,123,151,132,133,112,93,70,55,41,39,18,6],"friday":[1,0,0,0,15,165,310,574,403,210,148,121,111,121,127,151,127,120,92,61,44,42,29,11],"saturday":[3,2,1,3,11,24,46,52,67,54,45,44,46,45,45,40,37,38,24,23,14,21,8,6],"sunday":[4,1,1,4,15,32,44,60,68,67,54,52,51,59,63,55,37,35,35,26,26,25,12,6]}},{"id":"191","name":"88 St (A)","lat":40.679844,"lng":-73.85147,"lineColors":["#0039A6"],"byDayHour":{"weekday":[1,1,1,2,25,132,292,452,330,174,112,84,71,86,83,70,61,51,39,27,21,17,8,3],"friday":[0,0,0,0,21,118,265,403,291,142,96,75,55,78,87,71,58,51,46,34,23,18,14,6],"saturday":[0,1,1,3,7,16,31,39,38,45,30,25,26,26,28,22,19,14,17,13,10,9,6,2],"sunday":[1,1,3,3,7,13,28,38,46,42,37,36,33,34,35,32,22,13,19,10,11,11,6,5]}},{"id":"192","name":"Rockaway Blvd (A)","lat":40.680428,"lng":-73.84386,"lineColors":["#0039A6"],"byDayHour":{"weekday":[15,11,8,12,82,293,590,913,679,368,228,198,177,234,291,265,249,232,176,134,103,77,54,31],"friday":[10,10,7,8,68,280,549,845,589,313,209,178,179,223,326,315,264,236,195,124,112,86,70,45],"saturday":[12,10,5,8,15,35,62,93,90,80,65,66,78,73,78,67,61,58,53,46,40,34,27,16],"sunday":[13,9,5,5,15,37,51,78,98,92,85,83,84,96,97,88,73,59,65,62,55,41,29,14]}},{"id":"193","name":"104 St (A)","lat":40.68171,"lng":-73.837685,"lineColors":["#0039A6"],"byDayHour":{"weekday":[1,1,0,2,7,84,207,278,188,93,65,49,44,58,82,58,47,38,28,18,16,12,8,4],"friday":[0,0,0,0,3,83,193,238,161,78,58,48,34,50,85,55,50,44,29,22,18,15,10,6],"saturday":[2,1,1,1,4,10,17,17,22,16,18,15,13,17,16,12,14,15,13,7,5,4,3,2],"sunday":[1,2,0,1,3,10,12,18,20,21,19,20,19,25,18,16,13,13,10,8,10,5,3,1]}},{"id":"194","name":"111 St (A)","lat":40.68433,"lng":-73.83216,"lineColors":["#0039A6"],"byDayHour":{"weekday":[1,0,1,2,10,117,278,385,241,125,75,59,63,71,54,55,45,43,37,27,17,19,6,3],"friday":[0,0,0,1,6,112,257,336,211,108,67,56,57,52,52,51,50,51,36,31,15,18,9,3],"saturday":[1,0,1,4,7,15,23,31,30,27,21,23,20,23,20,14,11,11,12,11,7,6,4,3],"sunday":[1,2,1,2,8,13,18,30,25,29,24,22,24,27,20,16,20,17,14,10,8,8,5,2]}},{"id":"195","name":"Ozone Park-Lefferts Blvd (A)","lat":40.68595,"lng":-73.8258,"lineColors":["#0039A6"],"byDayHour":{"weekday":[5,4,5,7,27,426,843,1012,567,301,219,178,176,194,165,166,170,162,128,92,77,63,34,14],"friday":[2,2,2,1,13,387,755,885,466,260,193,159,168,193,164,174,177,164,135,96,82,69,37,23],"saturday":[10,5,8,7,13,40,73,93,68,60,52,57,57,68,60,51,58,46,42,36,34,21,18,8],"sunday":[14,7,8,9,18,36,64,83,71,68,61,75,81,78,70,64,58,64,50,39,37,39,19,14]}},{"id":"196","name":"Aqueduct Racetrack (A)","lat":40.672096,"lng":-73.83592,"lineColors":["#0039A6"],"byDayHour":{"weekday":[6,5,3,5,10,11,14,35,27,13,18,22,27,25,29,35,42,38,37,33,29,19,13,10],"friday":[7,6,6,3,13,10,14,25,21,12,14,27,29,24,32,39,58,61,47,40,31,31,22,11],"saturday":[9,7,6,2,8,5,2,3,3,4,5,10,10,9,12,13,18,20,20,16,18,17,9,9],"sunday":[7,9,6,5,7,7,2,1,2,3,5,11,11,12,17,29,29,33,29,24,20,12,10,6]}},{"id":"197","name":"Aqueduct-N Conduit Av (A)","lat":40.668236,"lng":-73.83406,"lineColors":["#0039A6"],"byDayHour":{"weekday":[4,2,2,2,17,44,84,132,82,32,24,18,21,24,33,32,30,25,17,13,10,8,5,5],"friday":[7,3,2,3,15,42,77,110,69,23,20,17,19,24,32,38,32,34,22,19,10,6,6,5],"saturday":[5,2,1,1,2,4,5,6,11,4,6,4,6,7,9,8,7,9,8,6,4,3,3,2],"sunday":[2,3,3,1,1,4,4,6,9,7,8,8,10,9,11,11,7,7,8,6,6,3,5,3]}},{"id":"198","name":"Howard Beach-JFK Airport (A)","lat":40.660477,"lng":-73.8303,"lineColors":["#0039A6"],"byDayHour":{"weekday":[34,32,17,10,24,71,171,255,208,128,120,134,135,160,230,227,237,219,171,143,152,106,110,74],"friday":[39,25,21,10,28,67,145,215,220,142,124,141,149,163,212,233,222,186,168,143,142,112,113,85],"saturday":[40,24,12,8,11,21,55,66,85,80,70,82,84,93,136,125,114,101,92,84,69,56,65,60],"sunday":[39,30,17,6,10,17,59,69,79,84,87,86,98,138,163,171,150,158,121,102,107,73,87,64]}},{"id":"199","name":"Broad Channel (A,S)","lat":40.608383,"lng":-73.815926,"lineColors":["#0039A6","#808183"],"byDayHour":{"weekday":[1,1,1,1,9,21,32,47,19,10,8,6,6,8,10,12,11,8,9,7,4,3,2,1],"friday":[1,1,1,1,8,22,28,38,16,6,6,8,6,9,10,14,10,10,8,7,5,2,1,1],"saturday":[1,3,3,1,1,1,5,5,4,3,4,4,2,5,6,6,7,4,5,5,3,1,2,2],"sunday":[3,1,1,1,1,0,3,8,2,3,3,3,3,4,4,7,6,8,3,7,3,4,4,1]}},{"id":"2","name":"Astoria Blvd (N,W)","lat":40.77026,"lng":-73.91785,"lineColors":["#FCCC0A"],"byDayHour":{"weekday":[26,9,8,12,40,156,463,1170,1578,846,488,392,368,360,418,461,453,490,376,238,163,120,94,58],"friday":[39,16,7,13,39,145,419,994,1099,685,447,372,364,358,401,469,532,575,483,332,198,162,125,91],"saturday":[46,17,13,7,20,41,98,162,235,307,292,285,305,325,327,292,282,265,243,192,138,110,91,62],"sunday":[52,24,14,10,17,38,78,121,190,253,310,332,330,313,329,288,268,240,217,173,122,100,79,51]}},{"id":"20","name":"City Hall (R,W)","lat":40.713284,"lng":-74.00698,"lineColors":["#FCCC0A"],"byDayHour":{"weekday":[14,6,2,4,2,12,24,108,193,154,161,194,232,250,286,460,617,757,471,272,185,99,77,41],"friday":[10,1,1,2,2,11,25,85,132,122,109,167,196,216,287,432,524,520,371,217,163,95,73,53],"saturday":[18,9,6,3,4,2,5,14,18,24,42,60,100,106,107,128,155,108,112,102,79,44,41,34],"sunday":[17,12,4,2,3,2,5,14,15,28,53,66,84,95,95,102,126,121,123,111,109,69,42,29]}},{"id":"200","name":"Beach 90 St (A,S)","lat":40.588036,"lng":-73.813644,"lineColors":["#0039A6","#808183"],"byDayHour":{"weekday":[2,1,1,5,9,28,88,102,36,23,21,17,24,24,28,34,35,41,33,26,19,10,3,2],"friday":[3,1,1,3,9,27,83,90,33,23,21,17,26,23,31,28,31,26,24,18,14,8,4,4],"saturday":[1,1,1,2,3,7,9,14,9,13,10,12,12,18,16,23,34,33,31,26,19,10,4,2],"sunday":[1,2,1,1,3,8,10,10,10,11,11,14,18,17,23,30,28,42,24,23,19,9,2,1]}},{"id":"201","name":"Beach 98 St (A,S)","lat":40.585308,"lng":-73.82056,"lineColors":["#0039A6","#808183"],"byDayHour":{"weekday":[1,0,0,2,9,15,47,52,22,14,11,12,18,23,38,26,25,24,19,12,10,6,2,1],"friday":[2,0,1,2,9,12,44,37,25,16,12,13,15,19,41,31,17,20,12,12,8,2,1,1],"saturday":[1,0,1,1,3,5,5,6,11,5,6,5,8,5,10,10,15,16,18,9,5,5,3,1],"sunday":[3,1,1,1,1,4,4,6,6,7,10,8,8,8,9,12,14,12,14,11,6,7,5,0]}},{"id":"202","name":"Beach 105 St (A,S)","lat":40.58321,"lng":-73.82756,"lineColors":["#0039A6","#808183"],"byDayHour":{"weekday":[0,0,1,1,3,10,29,34,11,6,4,6,4,8,31,34,22,21,15,15,17,4,1,0],"friday":[1,0,0,1,3,8,24,29,9,6,6,6,31,21,16,17,14,13,9,10,8,12,11,3],"saturday":[0,1,0,1,2,0,3,2,2,3,4,2,3,3,7,7,18,17,17,14,5,4,3,1],"sunday":[1,0,0,1,2,2,1,4,2,1,4,5,3,4,8,9,17,15,17,14,8,5,3,0]}},{"id":"203","name":"Rockaway Park-Beach 116 St (A,S)","lat":40.580902,"lng":-73.835594,"lineColors":["#0039A6","#808183"],"byDayHour":{"weekday":[6,4,4,8,14,30,53,71,32,25,23,24,26,27,31,37,46,38,34,27,16,12,11,9],"friday":[8,5,5,9,12,32,44,57,34,20,23,24,28,27,30,36,37,29,28,20,17,14,14,7],"saturday":[4,4,3,3,3,7,9,14,13,12,15,16,16,14,15,19,22,20,21,14,11,8,7,4],"sunday":[5,2,3,3,5,7,13,15,16,14,17,18,19,20,22,24,24,24,23,21,11,11,11,5]}},{"id":"204","name":"Beach 67 St (A)","lat":40.590927,"lng":-73.79692,"lineColors":["#0039A6"],"byDayHour":{"weekday":[4,4,7,10,40,110,175,262,158,99,76,70,63,76,86,95,89,89,72,56,38,28,16,14],"friday":[3,2,9,8,41,105,177,227,136,92,67,68,64,77,92,107,106,83,70,61,42,34,19,16],"saturday":[3,2,4,4,13,29,26,48,47,39,44,41,41,48,56,58,69,72,52,40,30,20,12,9],"sunday":[7,3,5,6,10,27,26,36,36,42,35,52,48,59,61,69,78,79,59,44,32,26,14,12]}},{"id":"205","name":"Beach 60 St (A)","lat":40.592373,"lng":-73.78852,"lineColors":["#0039A6"],"byDayHour":{"weekday":[5,5,8,14,41,88,157,214,112,67,58,53,52,56,57,63,65,43,34,28,24,21,9,4],"friday":[6,6,6,14,43,89,139,206,100,62,56,53,60,59,53,56,60,44,34,27,24,22,13,13],"saturday":[3,5,6,8,18,18,29,31,33,28,28,27,31,29,28,22,21,15,19,19,17,12,5,5],"sunday":[4,6,3,5,17,21,21,29,27,25,26,32,37,32,27,25,21,21,24,18,20,16,10,6]}},{"id":"206","name":"Beach 44 St (A)","lat":40.59294,"lng":-73.77602,"lineColors":["#0039A6"],"byDayHour":{"weekday":[4,2,2,4,20,42,72,106,51,28,23,20,22,25,23,31,23,22,13,15,11,11,5,7],"friday":[4,1,3,5,16,44,66,100,49,24,24,23,18,26,28,30,29,24,21,20,14,16,5,7],"saturday":[3,0,2,3,7,5,13,14,15,11,14,12,14,14,15,12,10,13,8,8,6,7,4,4],"sunday":[2,2,3,4,4,6,10,14,12,13,13,15,13,15,14,15,15,9,4,11,7,10,2,4]}},{"id":"207","name":"Beach 36 St (A)","lat":40.595398,"lng":-73.76817,"lineColors":["#0039A6"],"byDayHour":{"weekday":[1,1,1,2,15,46,74,102,55,32,29,25,24,24,23,40,27,21,15,14,14,10,4,3],"friday":[2,1,0,3,14,38,61,94,55,33,24,31,26,25,23,41,28,22,20,19,13,8,5,2],"saturday":[1,1,0,3,4,8,9,18,12,9,13,11,15,13,11,16,16,10,12,11,10,5,3,3],"sunday":[2,1,1,2,5,7,10,13,13,17,15,16,15,19,9,13,12,11,10,11,11,7,7,3]}},{"id":"208","name":"Beach 25 St (A)","lat":40.600067,"lng":-73.76135,"lineColors":["#0039A6"],"byDayHour":{"weekday":[1,3,7,8,33,109,144,203,107,61,40,40,47,62,81,64,55,32,25,20,21,17,11,2],"friday":[1,3,6,8,30,98,132,185,104,47,47,38,47,70,103,72,50,38,31,27,22,19,13,3],"saturday":[1,2,3,3,8,25,27,27,32,23,22,26,29,22,20,20,21,18,13,13,13,14,8,2],"sunday":[3,3,4,2,13,23,24,28,27,29,24,20,29,27,26,26,22,18,22,11,17,13,8,3]}},{"id":"209","name":"Far Rockaway-Mott Av (A)","lat":40.603996,"lng":-73.7554,"lineColors":["#0039A6"],"byDayHour":{"weekday":[24,13,15,26,77,226,371,435,247,162,130,126,150,157,174,256,270,249,166,116,94,69,41,33],"friday":[21,16,14,24,75,222,368,406,218,144,133,114,165,170,178,261,254,224,148,124,97,61,47,37],"saturday":[21,9,9,14,22,47,81,99,89,73,70,85,90,91,96,104,93,79,64,65,57,55,32,24],"sunday":[23,16,11,16,23,42,91,83,96,78,77,82,90,96,94,96,97,82,72,71,61,61,35,24]}},{"id":"210","name":"Norwood-205 St (D)","lat":40.87481,"lng":-73.87885,"lineColors":["#FF6319"],"byDayHour":{"weekday":[8,6,12,32,106,239,466,865,607,289,210,170,165,221,250,277,235,248,149,95,68,58,52,28],"friday":[6,6,11,27,96,220,444,804,532,270,190,181,159,202,248,270,214,222,159,113,81,67,45,28],"saturday":[10,6,7,9,32,78,132,174,161,146,140,135,141,140,172,149,114,95,88,70,61,52,34,20],"sunday":[12,8,6,9,25,66,118,149,130,148,156,133,148,175,168,139,98,88,84,74,56,47,46,20]}},{"id":"211","name":"Bedford Park Blvd (B,D)","lat":40.873245,"lng":-73.88714,"lineColors":["#FF6319"],"byDayHour":{"weekday":[10,8,6,19,61,192,448,710,617,272,209,173,174,231,272,329,269,221,144,94,77,70,46,25],"friday":[11,9,5,15,58,184,412,645,518,257,184,155,151,202,272,304,296,197,150,97,73,67,57,35],"saturday":[10,8,4,4,22,50,105,136,126,128,121,111,128,143,152,135,104,96,79,55,50,55,42,25],"sunday":[16,8,7,8,21,40,95,118,127,117,123,116,125,153,139,132,100,100,87,71,52,58,44,23]}},{"id":"212","name":"Kingsbridge Rd (B,D)","lat":40.866978,"lng":-73.89351,"lineColors":["#FF6319"],"byDayHour":{"weekday":[7,6,8,22,52,204,358,674,604,251,194,154,139,197,231,238,201,156,121,93,67,60,26,18],"friday":[8,6,7,18,46,187,370,653,555,245,185,126,129,167,224,236,194,155,126,96,67,54,31,20],"saturday":[5,4,4,8,19,53,94,126,128,126,96,115,97,108,118,114,94,76,82,63,52,39,28,17],"sunday":[11,5,8,7,21,55,88,106,112,122,115,109,103,127,122,104,86,75,83,55,47,44,25,15]}},{"id":"213","name":"Fordham Rd (B,D)","lat":40.861298,"lng":-73.89775,"lineColors":["#FF6319"],"byDayHour":{"weekday":[20,11,10,26,65,273,517,816,729,335,278,236,244,303,344,401,433,395,240,179,130,101,59,40],"friday":[18,10,10,28,64,266,473,784,616,327,260,220,249,313,369,422,409,386,257,183,132,95,71,33],"saturday":[26,19,11,14,37,96,143,198,191,164,152,161,179,202,232,209,181,170,149,139,106,78,62,29],"sunday":[27,15,18,13,29,80,149,159,180,163,166,166,189,237,244,215,189,177,147,129,88,72,43,33]}},{"id":"214","name":"182-183 Sts (B,D)","lat":40.856094,"lng":-73.90074,"lineColors":["#FF6319"],"byDayHour":{"weekday":[9,7,9,17,47,170,252,473,350,182,126,114,129,166,197,224,170,131,93,67,52,47,34,16],"friday":[7,7,10,13,45,166,254,470,346,180,125,115,136,145,200,224,173,138,107,72,51,41,35,17],"saturday":[8,5,4,5,16,43,61,86,85,84,67,68,82,99,95,95,69,67,57,45,34,29,23,15],"sunday":[9,8,7,10,20,33,55,86,73,83,71,66,73,89,105,85,75,69,51,47,39,37,25,16]}},{"id":"215","name":"Tremont Av (B,D)","lat":40.85041,"lng":-73.90523,"lineColors":["#FF6319"],"byDayHour":{"weekday":[15,11,11,24,68,228,442,789,713,300,199,178,167,199,247,284,277,245,151,89,67,62,49,25],"friday":[10,12,11,25,59,212,414,774,602,281,204,161,175,183,243,300,260,225,152,99,68,61,51,32],"saturday":[12,7,9,15,28,68,122,156,162,143,134,129,122,136,153,131,113,96,86,69,51,52,46,22],"sunday":[20,12,8,19,26,59,112,135,133,148,131,117,126,152,149,122,105,91,79,63,51,58,40,21]}},{"id":"216","name":"174-175 Sts (B,D)","lat":40.8459,"lng":-73.91013,"lineColors":["#FF6319"],"byDayHour":{"weekday":[9,3,7,13,39,125,191,365,300,178,136,122,113,146,169,196,219,207,110,76,46,38,26,15],"friday":[9,3,8,12,41,120,175,367,260,177,123,120,116,136,184,195,200,210,106,83,57,46,28,13],"saturday":[8,3,3,2,17,35,60,87,89,83,79,68,77,98,96,98,72,65,54,46,36,28,27,12],"sunday":[7,4,3,4,15,31,51,74,76,78,81,66,78,80,100,82,64,51,47,42,31,27,23,8]}},{"id":"217","name":"170 St (B,D)","lat":40.839306,"lng":-73.9134,"lineColors":["#FF6319"],"byDayHour":{"weekday":[8,5,4,15,45,166,311,533,435,228,178,152,129,170,243,367,242,173,112,71,52,42,32,18],"friday":[8,5,4,16,40,167,272,468,395,211,158,154,123,157,239,396,233,172,126,75,63,41,37,20],"saturday":[6,6,4,9,17,47,84,105,124,105,105,109,98,123,118,105,78,74,71,48,43,26,27,14],"sunday":[10,6,5,10,14,37,86,95,109,110,106,104,106,127,137,98,81,75,76,43,33,32,27,16]}},{"id":"218","name":"167 St (B,D)","lat":40.83377,"lng":-73.91844,"lineColors":["#FF6319"],"byDayHour":{"weekday":[15,11,11,27,78,273,426,752,620,368,271,229,230,253,305,326,316,257,157,114,74,72,57,33],"friday":[10,9,9,26,77,239,373,709,549,333,246,211,207,254,344,316,319,257,182,124,98,75,63,40],"saturday":[12,12,8,11,30,85,127,187,192,170,165,150,171,181,227,172,144,130,106,88,64,70,48,35],"sunday":[21,13,10,14,34,78,122,163,185,179,182,181,162,202,195,187,142,135,108,82,64,73,48,32]}},{"id":"22","name":"Rector St (R,W)","lat":40.70722,"lng":-74.01334,"lineColors":["#FCCC0A"],"byDayHour":{"weekday":[16,4,2,2,3,14,48,166,338,263,190,181,207,218,288,377,463,651,435,214,135,87,58,46],"friday":[18,3,1,1,2,12,45,146,237,191,167,164,195,202,301,362,404,486,346,219,141,95,73,51],"saturday":[23,9,3,1,2,5,11,21,35,56,104,117,109,110,132,144,128,140,113,98,63,45,39,37],"sunday":[23,12,5,3,4,2,11,29,33,58,105,113,134,150,133,152,129,130,105,87,63,48,35,28]}},{"id":"220","name":"155 St (B,D)","lat":40.830135,"lng":-73.93821,"lineColors":["#FF6319"],"byDayHour":{"weekday":[7,2,5,6,20,82,164,324,247,137,91,79,87,114,137,126,123,108,73,66,45,34,25,17],"friday":[5,4,4,5,14,67,145,320,224,123,91,85,90,111,151,116,124,95,83,66,58,40,28,16],"saturday":[6,6,4,4,8,18,38,58,52,50,58,45,59,64,62,64,57,57,46,36,34,24,20,14],"sunday":[9,4,5,7,6,21,40,46,53,45,48,74,68,84,67,55,52,45,42,35,35,23,21,13]}},{"id":"221","name":"21 St-Queensbridge (F)","lat":40.754204,"lng":-73.94283,"lineColors":["#FF6319"],"byDayHour":{"weekday":[43,13,8,12,37,125,347,714,918,642,444,367,334,344,406,567,725,666,465,291,188,132,72,57],"friday":[40,10,13,14,34,116,305,671,706,565,417,356,323,342,404,587,720,689,473,331,219,160,88,72],"saturday":[39,13,11,8,19,47,86,160,244,305,299,308,266,269,256,280,272,242,225,176,117,87,60,42],"sunday":[58,17,12,11,15,47,75,146,236,303,296,304,294,252,256,265,245,218,195,147,105,77,49,52]}},{"id":"222","name":"Roosevelt Island (F)","lat":40.759144,"lng":-73.95326,"lineColors":["#FF6319"],"byDayHour":{"weekday":[23,6,5,7,11,45,169,663,901,584,382,326,323,338,387,477,478,481,428,323,232,135,102,57],"friday":[25,10,7,8,13,40,138,598,749,515,371,334,360,404,464,529,544,605,503,392,278,192,141,105],"saturday":[39,13,5,5,8,15,33,80,159,211,277,371,445,433,399,427,393,402,335,267,190,118,89,64],"sunday":[44,17,7,4,7,16,36,78,162,267,319,378,406,410,381,375,395,375,365,280,227,111,79,52]}},{"id":"223","name":"Lexington Av/63 St (F,Q)","lat":40.76463,"lng":-73.96611,"lineColors":["#FF6319","#FCCC0A"],"byDayHour":{"weekday":[89,33,16,12,22,53,165,537,985,710,495,569,618,689,997,1452,1755,2126,1685,1141,836,529,386,275],"friday":[124,35,17,11,21,51,139,438,608,533,435,604,678,781,1083,1466,1667,1857,1529,996,624,495,440,329],"saturday":[128,46,22,13,18,27,61,117,169,229,312,468,546,550,620,697,626,604,679,551,382,265,231,228],"sunday":[134,58,26,18,16,19,55,107,164,207,321,435,508,505,500,487,565,578,540,433,296,204,172,146]}},{"id":"224","name":"57 St (F)","lat":40.763973,"lng":-73.97745,"lineColors":["#FF6319"],"byDayHour":{"weekday":[113,34,12,7,14,23,55,139,236,256,284,337,399,512,678,935,1250,1937,1584,896,563,440,414,340],"friday":[166,47,15,8,15,22,61,109,177,222,288,353,412,531,744,943,1131,1342,1097,718,472,464,414,350],"saturday":[140,49,27,16,12,15,26,48,81,147,224,288,340,425,475,580,562,586,576,421,284,268,329,255],"sunday":[165,56,33,13,14,16,26,53,81,164,244,274,369,367,436,529,598,624,563,383,244,210,216,175]}},{"id":"225","name":"47-50 Sts-Rockefeller Ctr (B,D,F,M)","lat":40.758663,"lng":-73.98133,"lineColors":["#FF6319"],"byDayHour":{"weekday":[504,129,61,33,38,54,149,318,426,581,754,996,1278,1592,2250,3320,5515,10576,7286,3619,1996,1386,1348,868],"friday":[694,180,80,36,45,60,142,318,381,565,764,970,1367,1775,2523,3470,4535,5847,3847,2327,1535,1190,1395,813],"saturday":[558,198,89,62,42,39,71,116,159,260,391,579,661,792,924,1196,1371,1280,1152,1106,808,708,1003,755],"sunday":[424,223,105,63,47,45,75,138,199,300,411,601,698,785,869,1064,1311,1512,1364,973,825,713,602,459]}},{"id":"228","name":"23 St (F,M)","lat":40.742878,"lng":-73.99282,"lineColors":["#FF6319"],"byDayHour":{"weekday":[115,38,17,13,12,40,207,773,1801,1298,732,754,866,964,1202,1525,1994,2930,2559,1617,1122,759,492,300],"friday":[164,64,39,20,21,34,170,499,943,838,655,748,896,999,1230,1593,1819,2310,1938,1446,976,642,500,432],"saturday":[177,85,54,40,23,15,34,79,123,245,391,541,632,688,778,862,855,902,884,729,563,408,370,328],"sunday":[212,123,70,38,33,22,36,63,135,225,388,501,561,648,645,698,780,781,760,583,427,326,267,174]}},{"id":"231","name":"Grand St (B,D)","lat":40.718266,"lng":-73.99375,"lineColors":["#FF6319"],"byDayHour":{"weekday":[99,35,19,14,20,54,212,621,1006,742,667,739,875,1048,1321,1700,1711,2121,1709,1072,858,689,385,249],"friday":[140,58,37,24,22,48,200,574,786,641,609,704,826,965,1349,1768,1779,2064,1778,1314,1025,877,576,457],"saturday":[285,142,81,41,33,32,65,142,208,303,418,474,627,783,865,1055,1158,1175,1159,935,761,660,486,401],"sunday":[325,164,104,66,48,31,59,133,242,320,424,564,684,838,955,1068,1133,1223,1133,871,790,586,396,226]}},{"id":"232","name":"2 Av (F)","lat":40.7234,"lng":-73.98994,"lineColors":["#FF6319"],"byDayHour":{"weekday":[140,55,41,22,35,46,180,594,1234,744,432,410,425,545,680,903,948,973,927,777,697,646,591,352],"friday":[225,85,68,42,42,45,148,429,711,478,401,425,487,586,778,959,961,1001,1027,914,797,770,871,804],"saturday":[520,350,221,132,69,38,56,93,173,243,310,389,505,563,664,726,726,721,761,796,712,620,644,623],"sunday":[646,386,278,168,91,47,56,81,161,272,374,488,596,680,672,747,724,739,755,697,646,554,481,283]}},{"id":"234","name":"East Broadway (F)","lat":40.713715,"lng":-73.99017,"lineColors":["#FF6319"],"byDayHour":{"weekday":[74,23,15,12,31,75,244,704,1004,702,485,447,480,524,783,834,987,1046,825,657,524,402,280,206],"friday":[120,40,19,12,31,65,216,621,788,597,456,451,508,527,778,809,1008,1041,831,741,582,511,483,345],"saturday":[203,102,59,33,25,31,74,144,219,294,344,383,434,523,560,642,703,678,662,581,505,367,383,281],"sunday":[240,139,64,28,34,32,63,107,209,311,353,419,482,592,650,681,727,718,623,622,483,359,253,139]}},{"id":"235","name":"York St (F)","lat":40.701397,"lng":-73.98675,"lineColors":["#FF6319"],"byDayHour":{"weekday":[60,22,10,5,13,39,134,483,808,531,352,395,450,557,658,842,984,1477,1231,821,671,462,291,138],"friday":[61,24,10,4,15,29,99,363,502,351,317,396,485,571,680,828,997,1198,967,843,652,484,393,295],"saturday":[106,36,18,12,12,10,27,63,103,148,253,388,572,657,725,774,826,729,672,630,518,335,286,227],"sunday":[137,52,20,13,17,13,26,67,105,171,273,482,650,815,869,949,984,987,783,771,623,446,314,163]}},{"id":"236","name":"Bergen St (F,G)","lat":40.686146,"lng":-73.99086,"lineColors":["#FF6319","#6CBE45"],"byDayHour":{"weekday":[29,12,7,6,12,50,160,652,1183,688,390,339,345,369,552,767,714,823,684,470,317,243,194,84],"friday":[38,21,16,13,13,45,139,516,766,487,341,343,367,380,544,851,782,905,784,624,394,310,307,205],"saturday":[90,45,25,17,10,13,30,67,121,201,260,343,419,413,412,454,459,465,468,394,275,226,206,145],"sunday":[93,41,25,15,12,18,30,48,105,185,267,355,408,441,427,443,443,455,402,310,212,187,140,64]}},{"id":"237","name":"Carroll St (F,G)","lat":40.6803,"lng":-73.99505,"lineColors":["#FF6319","#6CBE45"],"byDayHour":{"weekday":[18,8,3,4,9,53,238,983,1605,812,431,349,329,340,459,810,840,891,677,368,223,160,141,66],"friday":[29,7,3,4,8,43,202,817,1032,535,372,341,354,402,548,881,803,894,731,462,314,243,210,151],"saturday":[63,22,7,4,4,12,33,68,138,212,262,331,365,332,369,363,400,412,390,316,211,167,186,116],"sunday":[62,24,11,4,3,10,25,50,109,193,303,342,395,365,370,335,355,336,291,219,179,145,115,48]}},{"id":"238","name":"Smith-9 Sts (F,G)","lat":40.67358,"lng":-73.99596,"lineColors":["#FF6319","#6CBE45"],"byDayHour":{"weekday":[12,5,5,4,20,29,96,243,294,176,119,110,132,145,178,306,342,393,294,159,110,82,69,30],"friday":[17,5,4,7,17,28,87,222,228,137,114,111,146,192,187,275,331,345,242,157,110,92,73,49],"saturday":[20,7,5,4,9,9,23,36,56,63,76,107,119,125,139,141,141,154,131,112,89,74,57,50],"sunday":[26,9,8,5,7,13,24,38,46,68,97,84,118,122,126,150,160,148,146,125,101,71,49,21]}},{"id":"240","name":"7 Av (F,G)","lat":40.66627,"lng":-73.98031,"lineColors":["#FF6319","#6CBE45"],"byDayHour":{"weekday":[29,6,3,4,10,47,232,1001,1480,746,407,353,338,358,735,755,757,855,646,353,251,163,98,56],"friday":[30,8,4,3,10,38,194,845,1004,484,361,331,359,381,818,798,800,840,748,452,319,222,160,94],"saturday":[47,15,9,3,4,12,36,80,159,232,286,360,416,374,383,371,404,415,387,308,232,150,134,73],"sunday":[53,14,8,4,5,12,31,81,152,205,307,360,415,390,364,346,376,344,292,245,183,131,87,43]}},{"id":"241","name":"15 St-Prospect Park (F,G)","lat":40.660366,"lng":-73.97949,"lineColors":["#FF6319","#6CBE45"],"byDayHour":{"weekday":[12,5,3,3,10,46,166,629,888,397,212,178,178,182,270,272,299,353,320,163,106,84,54,41],"friday":[13,5,2,4,14,39,145,543,606,286,188,169,155,177,293,316,313,372,336,208,131,104,64,55],"saturday":[25,7,2,4,7,11,24,51,90,124,153,183,209,200,204,183,198,223,208,147,103,80,63,47],"sunday":[23,9,4,4,5,10,25,41,78,112,172,215,234,226,210,199,208,186,175,125,85,63,38,30]}},{"id":"242","name":"Fort Hamilton Pkwy (F,G)","lat":40.650784,"lng":-73.97578,"lineColors":["#FF6319","#6CBE45"],"byDayHour":{"weekday":[4,2,2,4,13,60,254,836,914,422,232,182,181,175,222,227,250,303,240,109,53,33,24,14],"friday":[5,4,3,4,14,54,231,760,694,306,207,192,191,178,220,241,283,355,304,156,96,56,28,25],"saturday":[10,4,7,1,5,15,33,68,122,170,206,209,218,184,184,161,176,193,167,109,63,38,31,26],"sunday":[12,4,4,1,6,14,28,53,99,156,203,222,255,217,193,173,141,142,122,75,47,23,21,14]}},{"id":"243","name":"Church Av (F,G)","lat":40.64404,"lng":-73.979675,"lineColors":["#FF6319","#6CBE45"],"byDayHour":{"weekday":[27,19,16,28,88,188,459,1217,1078,577,368,301,282,309,335,350,368,448,336,221,161,111,68,51],"friday":[23,19,13,14,65,167,433,1148,871,460,313,267,277,300,376,366,374,376,303,204,140,112,58,44],"saturday":[22,16,14,20,58,96,183,298,323,339,319,338,323,309,303,287,272,266,228,178,130,98,60,41],"sunday":[35,19,13,27,58,105,170,240,315,376,383,377,386,372,355,335,312,298,243,179,133,102,72,53]}},{"id":"244","name":"Ditmas Av (F)","lat":40.63612,"lng":-73.97817,"lineColors":["#FF6319"],"byDayHour":{"weekday":[8,3,4,7,26,79,222,494,406,224,138,122,112,125,160,197,212,209,140,92,62,33,26,17],"friday":[12,5,5,7,35,71,209,466,323,181,111,116,130,138,187,244,196,176,130,70,48,34,26,13],"saturday":[3,1,1,0,7,9,23,24,41,40,35,34,36,25,31,31,25,24,27,17,9,9,7,4],"sunday":[1,2,0,1,3,5,12,17,26,34,35,33,32,34,38,31,28,35,25,11,14,10,7,3]}},{"id":"245","name":"18 Av (F)","lat":40.629753,"lng":-73.976974,"lineColors":["#FF6319"],"byDayHour":{"weekday":[5,2,5,5,21,79,167,414,314,165,113,95,96,111,140,146,172,211,155,89,54,34,20,11],"friday":[8,4,8,6,22,71,160,386,282,149,113,94,104,138,175,166,174,170,106,79,54,34,19,12],"saturday":[7,2,2,2,4,13,22,47,43,57,44,45,47,38,48,34,37,35,28,24,19,17,13,8],"sunday":[3,3,2,2,4,11,21,37,41,48,45,45,44,46,44,43,34,40,30,27,19,13,11,7]}},{"id":"246","name":"Avenue I (F)","lat":40.62532,"lng":-73.97613,"lineColors":["#FF6319"],"byDayHour":{"weekday":[4,2,1,1,5,20,45,135,129,82,42,42,46,65,119,97,141,122,93,62,39,24,18,13],"friday":[7,3,1,1,4,21,33,119,99,65,33,33,44,86,129,109,147,102,80,63,31,14,15,7],"saturday":[3,1,0,0,1,3,3,11,13,10,12,9,12,13,14,15,15,18,9,10,6,7,4,2],"sunday":[2,1,0,1,2,1,4,7,15,12,11,14,18,16,21,25,21,20,17,9,10,6,4,3]}},{"id":"247","name":"Bay Pkwy (F)","lat":40.62077,"lng":-73.975266,"lineColors":["#FF6319"],"byDayHour":{"weekday":[2,1,0,1,15,26,62,142,124,60,35,26,39,41,54,61,71,55,40,24,18,12,9,3],"friday":[3,1,0,1,11,28,62,144,116,50,30,26,37,44,47,69,67,40,36,25,14,12,7,3],"saturday":[2,1,0,0,1,6,13,27,24,19,15,13,14,15,14,17,16,12,10,7,7,5,2,2],"sunday":[2,0,1,0,1,3,8,15,20,18,18,15,17,14,19,14,13,9,9,5,5,4,2,2]}},{"id":"248","name":"Avenue N (F)","lat":40.61514,"lng":-73.9742,"lineColors":["#FF6319"],"byDayHour":{"weekday":[2,1,1,2,21,81,165,353,324,164,87,55,66,70,95,121,129,153,80,47,36,22,16,6],"friday":[6,3,1,2,23,69,154,336,263,124,84,59,87,82,100,110,105,127,73,53,38,23,22,12],"saturday":[4,1,0,1,6,11,25,29,34,35,38,31,28,24,29,30,29,31,18,14,15,9,8,4],"sunday":[3,1,1,1,5,6,18,24,29,32,29,31,28,33,32,25,26,29,17,17,14,7,5,3]}},{"id":"249","name":"Avenue P (F)","lat":40.608944,"lng":-73.97302,"lineColors":["#FF6319"],"byDayHour":{"weekday":[5,3,2,3,16,78,163,362,295,153,83,56,57,64,74,81,83,94,65,49,29,17,14,8],"friday":[6,4,4,4,16,74,154,345,272,123,73,56,53,57,84,94,86,95,62,51,30,19,13,7],"saturday":[2,1,0,1,6,10,22,36,41,33,30,31,28,29,25,26,21,24,19,14,9,6,6,3],"sunday":[1,1,1,1,2,9,15,24,33,32,31,25,24,26,32,30,23,17,15,11,10,7,4,3]}},{"id":"250","name":"Kings Hwy (F)","lat":40.603218,"lng":-73.97236,"lineColors":["#FF6319"],"byDayHour":{"weekday":[4,3,4,3,33,95,205,444,399,216,128,94,100,123,159,140,169,179,116,82,51,29,21,13],"friday":[5,4,6,4,31,91,194,407,336,175,120,89,119,145,167,141,157,142,114,75,43,31,16,11],"saturday":[2,3,2,2,8,16,42,58,64,51,49,41,51,42,47,43,46,44,30,31,15,8,10,6],"sunday":[3,3,3,2,6,11,27,47,53,58,47,45,44,52,41,41,44,34,27,23,13,12,7,5]}},{"id":"251","name":"Avenue U (F)","lat":40.59606,"lng":-73.97336,"lineColors":["#FF6319"],"byDayHour":{"weekday":[3,2,3,5,16,61,118,264,199,126,61,50,47,59,77,102,98,109,73,42,28,22,9,6],"friday":[5,5,4,4,18,58,116,239,161,98,62,45,52,65,110,85,92,92,61,37,25,21,19,8],"saturday":[3,2,1,2,6,13,15,35,28,28,27,23,24,22,28,25,30,27,21,17,12,8,8,3],"sunday":[2,1,3,1,4,8,13,22,32,23,21,22,26,25,23,18,20,24,18,12,8,5,5,3]}},{"id":"252","name":"Avenue X (F)","lat":40.58962,"lng":-73.97425,"lineColors":["#FF6319"],"byDayHour":{"weekday":[4,3,3,4,26,78,161,336,232,112,74,69,76,95,110,128,115,108,67,36,33,32,19,21],"friday":[7,4,5,6,27,69,157,322,196,117,74,72,71,88,105,129,103,89,60,41,38,35,20,23],"saturday":[4,2,1,1,5,11,20,31,39,24,25,23,29,28,29,28,25,25,15,13,16,13,5,5],"sunday":[2,2,2,1,4,6,17,20,29,23,24,25,22,22,21,18,21,14,12,10,9,9,5,4]}},{"id":"253","name":"Neptune Av (F)","lat":40.581013,"lng":-73.97457,"lineColors":["#FF6319"],"byDayHour":{"weekday":[1,1,1,2,14,46,81,177,121,65,44,48,65,82,119,135,100,79,46,31,28,13,7,6],"friday":[2,2,0,2,12,42,73,153,116,56,49,63,108,77,112,121,78,65,40,30,30,13,7,4],"saturday":[1,1,0,1,2,6,7,17,13,13,15,15,16,17,10,15,15,15,9,10,8,5,3,1],"sunday":[1,0,0,0,2,4,6,9,14,15,13,15,20,18,11,13,13,12,8,7,8,3,2,2]}},{"id":"254","name":"Jamaica-179 St (F)","lat":40.712646,"lng":-73.78381,"lineColors":["#FF6319"],"byDayHour":{"weekday":[36,27,43,87,335,924,1856,2797,2264,1150,737,572,580,609,568,587,575,541,410,256,217,204,135,56],"friday":[32,25,39,84,312,860,1813,2426,1761,1003,662,547,501,581,576,588,545,574,450,295,232,206,133,77],"saturday":[27,25,20,40,120,217,352,447,446,415,363,331,357,370,367,293,283,256,225,179,151,127,107,58],"sunday":[41,25,30,40,105,195,271,342,334,385,382,330,355,377,375,286,260,249,221,160,158,153,121,51]}},{"id":"255","name":"169 St (F)","lat":40.71047,"lng":-73.7936,"lineColors":["#FF6319"],"byDayHour":{"weekday":[16,9,14,22,76,259,523,789,691,428,330,289,298,360,440,467,347,327,224,159,124,86,52,26],"friday":[13,8,10,23,73,249,476,713,613,396,302,259,268,314,436,548,358,332,243,157,121,89,60,34],"saturday":[14,8,11,10,32,76,134,179,186,172,187,171,181,216,204,194,168,135,129,122,78,68,44,27],"sunday":[17,8,15,13,30,74,105,137,151,160,178,178,182,201,199,178,147,141,123,106,84,63,41,18]}},{"id":"256","name":"Parsons Blvd (F)","lat":40.707565,"lng":-73.80333,"lineColors":["#FF6319"],"byDayHour":{"weekday":[20,13,10,26,106,277,425,734,600,374,264,213,242,312,502,331,283,253,193,122,103,82,55,25],"friday":[17,8,7,32,97,266,388,665,524,334,245,197,235,286,533,336,272,239,196,133,113,95,62,36],"saturday":[15,17,12,13,42,90,123,199,194,185,163,172,181,185,170,167,146,130,110,87,90,67,48,22],"sunday":[18,17,9,12,37,87,107,154,166,190,164,169,197,198,205,168,127,130,113,82,84,63,54,25]}},{"id":"257","name":"Sutphin Blvd (F)","lat":40.70546,"lng":-73.81071,"lineColors":["#FF6319"],"byDayHour":{"weekday":[15,7,7,16,55,189,305,494,384,223,184,163,189,186,201,201,190,169,111,87,64,51,30,20],"friday":[13,8,9,20,54,191,281,462,360,216,163,142,152,164,219,193,188,159,126,80,61,52,35,24],"saturday":[17,7,5,9,23,56,86,115,127,116,104,100,99,106,112,102,103,81,80,54,49,49,27,17],"sunday":[16,10,7,10,24,40,67,87,88,94,110,98,95,112,132,107,98,86,74,54,53,46,26,22]}},{"id":"258","name":"Briarwood (E,F)","lat":40.70918,"lng":-73.82057,"lineColors":["#0039A6","#FF6319"],"byDayHour":{"weekday":[8,5,10,15,45,161,346,624,637,326,212,158,162,207,359,197,193,176,125,74,52,44,38,15],"friday":[8,6,10,15,42,139,324,552,536,275,208,221,197,199,372,161,178,177,139,89,54,51,36,17],"saturday":[10,6,4,8,21,41,72,97,132,141,126,129,125,133,122,114,91,98,81,54,37,35,22,16],"sunday":[7,4,7,5,19,43,73,88,107,125,131,146,129,138,130,102,95,80,65,50,43,38,25,11]}},{"id":"259","name":"Kew Gardens-Union Tpke (E,F)","lat":40.71444,"lng":-73.83101,"lineColors":["#0039A6","#FF6319"],"byDayHour":{"weekday":[70,35,29,51,187,587,1473,2570,2600,1504,1026,848,781,820,833,947,1056,1247,750,468,288,225,159,109],"friday":[71,36,29,51,190,518,1317,2366,2046,1177,901,816,782,798,811,960,1055,1136,713,450,292,227,164,131],"saturday":[64,37,25,28,55,181,291,470,572,527,494,486,449,502,497,465,448,414,339,267,203,161,115,104],"sunday":[71,40,27,30,58,154,257,343,471,508,468,472,487,520,515,451,395,367,292,255,183,162,135,83]}},{"id":"26","name":"DeKalb Av (B,Q,R)","lat":40.690636,"lng":-73.98183,"lineColors":["#FF6319","#FCCC0A"],"byDayHour":{"weekday":[95,33,20,16,41,135,412,992,1880,1267,762,723,788,905,1171,2215,1882,1933,1392,989,777,493,387,327],"friday":[116,49,22,21,43,117,362,805,1227,920,710,775,879,934,1226,2237,1664,1687,1354,949,704,516,472,321],"saturday":[116,50,16,25,26,41,98,151,249,327,407,473,571,614,667,700,677,662,621,560,411,350,365,291],"sunday":[163,76,31,29,32,48,100,145,240,347,395,524,590,660,711,649,679,661,610,483,348,270,277,157]}},{"id":"260","name":"75 Av (E,F)","lat":40.71833,"lng":-73.837326,"lineColors":["#0039A6","#FF6319"],"byDayHour":{"weekday":[7,4,4,6,14,44,155,359,488,236,146,106,107,106,109,127,134,173,109,63,45,31,26,13],"friday":[7,3,3,4,11,36,146,291,329,193,133,105,102,115,106,136,156,178,123,86,57,45,44,20],"saturday":[13,4,8,4,7,13,29,39,66,86,94,99,107,92,88,90,85,85,68,44,36,25,44,17],"sunday":[14,7,9,5,8,16,26,34,59,83,103,101,118,111,100,84,86,76,63,48,34,31,31,13]}},{"id":"261","name":"Forest Hills-71 Av (E,F,M,R)","lat":40.72169,"lng":-73.84452,"lineColors":["#0039A6","#FF6319","#FCCC0A"],"byDayHour":{"weekday":[60,24,17,39,94,483,1271,2647,3121,1719,1067,929,909,1003,1070,1129,1249,1363,987,672,490,411,405,134],"friday":[69,22,22,36,91,443,1111,2300,2260,1383,984,857,902,1012,1061,1103,1237,1293,987,697,509,716,2399,352],"saturday":[89,39,19,17,31,116,223,394,521,598,584,624,713,683,642,656,636,549,510,436,392,685,2101,276],"sunday":[121,56,21,25,34,99,174,305,427,549,604,647,781,733,680,695,642,570,551,458,428,499,1024,159]}},{"id":"262","name":"67 Av (M,R)","lat":40.726524,"lng":-73.85272,"lineColors":["#FF6319","#FCCC0A"],"byDayHour":{"weekday":[12,5,5,9,38,149,469,1023,1058,497,315,258,239,349,362,315,417,303,223,141,84,55,40,32],"friday":[8,4,2,9,34,139,410,874,774,440,286,238,224,367,410,336,455,305,230,158,85,57,53,37],"saturday":[11,8,2,7,11,36,71,127,172,186,173,187,170,167,155,152,134,112,91,76,55,38,41,28],"sunday":[12,6,5,6,12,30,54,121,147,178,186,200,181,183,169,147,127,119,83,74,56,41,37,25]}},{"id":"263","name":"63 Dr-Rego Park (M,R)","lat":40.729847,"lng":-73.8616,"lineColors":["#FF6319","#FCCC0A"],"byDayHour":{"weekday":[20,9,11,19,67,278,730,1435,1581,862,590,498,489,505,576,613,591,640,462,298,227,144,94,53],"friday":[23,14,11,14,49,265,641,1264,1274,760,521,456,468,545,543,589,563,614,459,342,224,142,89,67],"saturday":[20,11,6,7,21,77,133,238,307,295,299,328,346,330,327,321,276,271,255,178,139,95,64,46],"sunday":[26,15,9,9,19,71,113,190,259,287,304,326,351,333,331,340,292,310,249,199,144,94,69,50]}},{"id":"264","name":"Woodhaven Blvd (M,R)","lat":40.733105,"lng":-73.86923,"lineColors":["#FF6319","#FCCC0A"],"byDayHour":{"weekday":[29,12,13,29,120,582,1200,2009,1887,1072,723,605,618,722,753,822,847,821,610,416,330,242,129,81],"friday":[25,13,11,26,102,562,1100,1896,1691,982,668,624,666,707,733,827,819,878,667,526,384,299,158,93],"saturday":[31,12,7,15,44,150,281,396,390,419,375,386,426,449,494,517,461,462,414,343,273,210,123,62],"sunday":[41,16,10,15,42,112,204,318,316,371,369,365,394,460,496,483,465,443,430,390,293,157,96,60]}},{"id":"265","name":"Grand Av-Newtown (M,R)","lat":40.737015,"lng":-73.87722,"lineColors":["#FF6319","#FCCC0A"],"byDayHour":{"weekday":[17,14,15,27,113,560,1198,2153,2134,1241,837,581,522,560,675,783,620,564,421,266,193,128,79,51],"friday":[18,15,14,25,101,542,1157,2066,1859,1136,797,558,502,538,708,818,640,587,466,322,216,166,106,74],"saturday":[22,11,11,12,45,154,278,414,475,509,459,398,379,401,405,375,325,288,247,176,130,100,61,44],"sunday":[30,17,16,15,40,118,211,304,364,479,490,419,402,410,406,368,322,283,233,190,131,92,64,39]}},{"id":"266","name":"Elmhurst Av (M,R)","lat":40.742455,"lng":-73.88202,"lineColors":["#FF6319","#FCCC0A"],"byDayHour":{"weekday":[14,9,8,17,55,339,802,1474,1386,913,745,438,375,411,509,472,466,367,307,213,126,87,58,38],"friday":[14,8,8,14,53,333,752,1410,1242,891,682,442,350,379,474,484,503,395,360,245,165,114,66,49],"saturday":[17,7,7,9,34,88,177,259,320,360,367,283,264,283,295,269,228,196,172,140,104,63,45,29],"sunday":[19,9,10,17,37,82,145,215,279,370,406,307,282,319,317,296,238,189,167,142,88,64,48,37]}},{"id":"268","name":"65 St (M,R)","lat":40.74967,"lng":-73.89845,"lineColors":["#FF6319","#FCCC0A"],"byDayHour":{"weekday":[5,3,3,6,20,111,228,404,363,207,161,105,100,101,133,148,130,130,128,64,49,27,21,14],"friday":[4,3,3,6,19,109,221,409,331,189,145,111,96,101,136,138,129,115,120,85,60,28,32,17],"saturday":[4,6,3,5,8,26,42,80,85,90,68,62,72,71,89,84,60,60,49,47,25,20,14,11],"sunday":[5,5,2,5,8,28,35,60,68,78,95,69,88,97,89,85,67,53,46,36,18,24,16,12]}},{"id":"269","name":"Northern Blvd (M,R)","lat":40.752884,"lng":-73.906006,"lineColors":["#FF6319","#FCCC0A"],"byDayHour":{"weekday":[9,4,6,15,29,235,441,719,753,392,280,212,190,215,262,306,287,305,220,111,77,53,40,30],"friday":[10,4,3,13,26,214,426,685,624,360,263,177,179,201,253,301,296,301,233,126,80,63,53,35],"saturday":[10,7,10,17,20,41,75,107,132,126,128,114,99,114,123,133,107,102,91,66,42,37,26,17],"sunday":[14,6,5,11,19,31,67,78,103,112,128,112,115,155,129,122,106,93,79,59,41,31,24,19]}},{"id":"270","name":"46 St (M,R)","lat":40.756313,"lng":-73.91333,"lineColors":["#FF6319","#FCCC0A"],"byDayHour":{"weekday":[12,7,6,4,24,119,312,669,893,454,273,216,201,236,462,345,292,276,232,141,98,76,62,23],"friday":[10,7,7,3,19,110,277,604,668,366,269,225,189,237,404,341,286,316,289,175,131,89,77,41],"saturday":[16,8,6,4,10,37,65,105,126,147,139,154,160,152,168,182,134,136,138,101,74,55,43,24],"sunday":[19,10,6,7,10,29,47,80,103,143,154,173,166,157,167,166,153,155,119,88,77,54,41,24]}},{"id":"271","name":"Steinway St (M,R)","lat":40.756878,"lng":-73.92074,"lineColors":["#FF6319","#FCCC0A"],"byDayHour":{"weekday":[47,21,17,16,33,146,407,920,1336,678,445,396,370,400,477,658,612,677,606,405,298,219,193,96],"friday":[56,21,19,19,27,134,379,799,980,550,382,361,347,415,497,704,717,738,723,501,329,243,210,160],"saturday":[66,33,24,21,26,38,71,131,159,204,241,255,302,307,326,366,353,340,301,224,186,143,122,100],"sunday":[76,43,28,26,25,39,66,88,132,184,237,256,288,311,325,301,293,306,306,196,163,136,128,78]}},{"id":"272","name":"36 St (M,R)","lat":40.75204,"lng":-73.92878,"lineColors":["#FF6319","#FCCC0A"],"byDayHour":{"weekday":[11,5,2,3,5,26,63,139,233,169,134,134,130,135,208,239,317,372,240,115,61,45,41,31],"friday":[10,4,1,2,4,23,58,108,165,134,116,121,122,130,196,224,314,338,209,110,73,60,52,52],"saturday":[21,9,3,2,4,7,8,16,21,33,42,44,39,42,62,57,66,55,59,41,31,26,31,29],"sunday":[23,10,5,4,3,5,7,12,27,32,44,44,48,44,38,49,54,51,35,29,28,23,25,18]}},{"id":"273","name":"Queens Plaza (E,M,R)","lat":40.748974,"lng":-73.93724,"lineColors":["#0039A6","#FF6319","#FCCC0A"],"byDayHour":{"weekday":[51,17,12,17,31,96,285,799,1540,1135,756,715,715,793,1140,1840,1599,1582,952,571,420,294,175,85],"friday":[52,17,17,18,28,93,267,614,1054,862,636,579,616,691,1118,1661,1394,1282,959,612,365,306,208,134],"saturday":[73,26,21,11,21,44,104,155,248,346,428,510,539,561,547,547,479,492,455,360,249,185,167,115],"sunday":[78,33,20,16,21,46,98,168,247,348,450,539,551,532,516,475,447,423,408,279,213,183,165,79]}},{"id":"276","name":"5 Av/53 St (E,M)","lat":40.760166,"lng":-73.97523,"lineColors":["#0039A6","#FF6319"],"byDayHour":{"weekday":[41,9,3,4,4,6,32,58,113,170,241,363,490,664,953,1343,2303,4028,2846,1284,583,258,159,87],"friday":[53,14,5,2,4,6,32,54,102,144,217,337,525,695,965,1291,1755,2234,1387,702,386,217,163,99],"saturday":[66,17,6,6,4,5,12,13,25,39,59,120,191,243,325,395,426,413,414,356,200,122,114,89],"sunday":[49,17,6,5,2,4,10,21,30,57,82,141,204,256,293,331,397,452,432,235,151,94,74,59]}},{"id":"277","name":"7 Av (E,B,D)","lat":40.762863,"lng":-73.981636,"lineColors":["#0039A6","#FF6319"],"byDayHour":{"weekday":[152,48,21,15,20,33,95,224,435,474,444,429,479,565,878,1163,1624,2510,1717,1019,626,598,468,312],"friday":[194,63,24,19,22,38,92,191,351,440,431,446,504,573,853,1122,1345,1626,1103,749,572,629,506,395],"saturday":[220,84,38,31,25,21,40,77,153,213,322,384,406,389,460,522,673,598,500,404,342,298,460,334],"sunday":[213,105,43,33,34,35,52,98,151,292,353,429,470,445,499,531,608,699,488,351,299,252,282,215]}},{"id":"278","name":"Jamaica Center-Parsons/Archer (E,J,Z)","lat":40.70215,"lng":-73.80111,"lineColors":["#0039A6","#996633"],"byDayHour":{"weekday":[82,56,55,102,358,1272,2466,3268,2564,1361,1016,854,1053,1097,1073,1383,1440,1422,1050,599,576,431,270,144],"friday":[90,58,53,103,347,1213,2241,2985,2164,1177,910,786,977,1010,1041,1281,1340,1282,955,604,488,394,273,143],"saturday":[78,59,37,61,128,299,495,606,561,483,463,438,512,579,558,571,552,540,468,337,322,270,199,98],"sunday":[93,52,56,57,112,246,405,482,536,474,460,407,497,533,511,528,514,472,430,285,330,289,194,107]}},{"id":"279","name":"Sutphin Blvd-Archer Av-JFK Airport (E,J,Z)","lat":40.700485,"lng":-73.80797,"lineColors":["#0039A6","#996633"],"byDayHour":{"weekday":[211,115,72,70,188,754,1734,2420,2182,1370,1069,974,976,1107,1299,1541,1550,1620,1251,879,709,605,483,392],"friday":[247,119,77,67,189,714,1617,2297,2004,1211,1020,956,982,1053,1277,1610,1509,1537,1240,858,712,613,521,444],"saturday":[188,97,53,50,80,189,421,659,734,675,647,663,666,707,782,912,837,781,740,602,537,414,391,362],"sunday":[238,137,68,49,72,160,358,504,609,623,661,621,671,795,943,932,888,829,769,668,595,518,472,341]}},{"id":"28","name":"Union St (R)","lat":40.677315,"lng":-73.98311,"lineColors":["#FCCC0A"],"byDayHour":{"weekday":[19,8,4,5,6,44,149,509,866,450,243,209,206,222,296,543,490,509,419,265,191,173,138,63],"friday":[25,12,5,8,7,33,128,425,519,315,220,228,227,252,328,533,486,504,393,311,243,204,197,158],"saturday":[63,37,19,11,5,10,25,56,87,134,160,228,248,253,261,297,299,281,272,212,163,146,130,119],"sunday":[60,32,19,13,8,13,21,33,71,113,165,215,225,221,204,217,211,206,205,167,117,86,71,35]}},{"id":"280","name":"Jamaica-Van Wyck (E)","lat":40.702564,"lng":-73.81686,"lineColors":["#0039A6"],"byDayHour":{"weekday":[14,4,5,14,56,180,314,507,375,231,161,149,153,155,175,234,329,279,144,114,69,48,26,34],"friday":[11,5,7,13,49,167,291,502,325,214,159,128,148,160,180,246,297,256,136,120,64,48,29,30],"saturday":[14,5,3,8,17,42,83,114,118,100,77,87,93,88,85,99,99,69,56,67,39,27,22,23],"sunday":[16,7,5,10,16,31,55,89,89,77,77,79,77,96,84,103,77,63,58,78,41,26,25,21]}},{"id":"282","name":"21 St (G)","lat":40.744064,"lng":-73.94972,"lineColors":["#6CBE45"],"byDayHour":{"weekday":[7,3,1,1,4,8,34,79,78,52,36,31,40,54,60,115,181,192,164,91,62,49,28,15],"friday":[8,2,2,2,3,8,23,83,71,44,42,42,41,52,69,106,160,181,159,110,79,77,56,36],"saturday":[16,7,6,2,3,2,6,11,21,35,40,63,60,67,65,80,76,92,97,70,51,47,34,31],"sunday":[17,7,4,0,1,3,4,14,18,30,46,57,63,61,76,86,91,83,82,63,45,35,20,16]}},{"id":"283","name":"Greenpoint Av (G)","lat":40.731354,"lng":-73.95445,"lineColors":["#6CBE45"],"byDayHour":{"weekday":[28,11,5,5,9,62,200,622,1031,664,374,314,315,353,384,528,605,697,644,386,268,209,118,68],"friday":[38,10,9,9,9,53,155,462,595,448,346,314,319,370,408,585,635,707,693,505,348,287,282,229],"saturday":[92,35,15,8,8,18,44,94,126,178,227,306,364,381,396,411,418,418,441,352,269,205,206,151],"sunday":[108,50,24,8,8,17,33,70,110,172,246,315,376,392,401,397,406,382,318,269,217,187,139,71]}},{"id":"284","name":"Nassau Av (G)","lat":40.724636,"lng":-73.95128,"lineColors":["#6CBE45"],"byDayHour":{"weekday":[47,17,8,5,14,53,181,580,976,515,277,246,242,287,352,447,543,701,619,414,334,273,193,112],"friday":[72,30,14,8,12,50,163,462,582,372,272,264,324,327,405,474,564,762,691,522,396,337,291,353],"saturday":[144,101,68,20,26,18,32,65,103,163,225,291,361,411,423,523,548,561,539,439,337,263,245,266],"sunday":[190,105,71,31,25,12,31,52,94,141,223,250,340,419,439,447,479,505,449,355,281,241,225,133]}},{"id":"286","name":"Broadway (G)","lat":40.706093,"lng":-73.95031,"lineColors":["#6CBE45"],"byDayHour":{"weekday":[15,7,6,6,10,61,152,294,373,210,135,113,121,136,280,243,256,305,242,172,117,69,49,32],"friday":[20,9,5,9,9,58,140,291,311,175,123,129,144,170,344,256,288,283,254,192,134,105,104,73],"saturday":[34,24,19,12,11,19,34,70,86,106,129,147,153,172,170,162,143,142,137,125,96,69,65,60],"sunday":[42,28,17,13,9,13,34,54,74,89,125,172,172,174,172,175,160,147,149,134,85,57,48,31]}},{"id":"287","name":"Flushing Av (G)","lat":40.70038,"lng":-73.95023,"lineColors":["#6CBE45"],"byDayHour":{"weekday":[11,4,4,5,8,26,81,159,188,103,83,74,88,109,169,186,248,277,212,152,94,53,23,18],"friday":[12,5,4,6,6,27,70,148,168,90,84,74,98,125,245,251,265,223,172,102,61,45,37,31],"saturday":[17,6,4,4,6,8,23,31,38,37,57,59,58,60,81,68,74,65,62,72,42,38,32,25],"sunday":[19,6,7,4,6,9,17,23,36,37,65,62,64,74,72,99,106,107,99,101,56,41,23,25]}},{"id":"288","name":"Myrtle-Willoughby Avs (G)","lat":40.69457,"lng":-73.94904,"lineColors":["#6CBE45"],"byDayHour":{"weekday":[10,4,3,7,15,71,195,429,607,374,211,179,175,192,200,215,264,291,217,140,82,47,25,18],"friday":[11,6,3,4,15,64,177,379,475,295,214,192,178,201,222,242,275,282,252,165,113,88,65,51],"saturday":[21,9,9,8,8,21,45,69,108,140,165,181,187,178,187,179,144,136,139,123,89,62,57,41],"sunday":[26,15,9,7,10,24,40,56,87,136,167,184,197,207,192,175,161,144,134,110,62,49,36,20]}},{"id":"289","name":"Bedford-Nostrand Avs (G)","lat":40.68963,"lng":-73.95352,"lineColors":["#6CBE45"],"byDayHour":{"weekday":[24,12,9,11,24,77,233,660,1042,648,368,316,285,289,303,339,368,486,406,266,140,89,82,53],"friday":[35,16,7,7,21,75,235,617,770,491,336,292,302,330,362,373,423,497,496,393,240,143,131,96],"saturday":[45,22,11,8,8,19,49,99,178,245,295,334,353,310,336,298,265,268,273,231,154,117,95,71],"sunday":[59,30,17,11,9,18,53,87,129,199,306,349,391,388,357,309,291,290,245,165,110,75,67,37]}},{"id":"290","name":"Classon Av (G)","lat":40.688873,"lng":-73.96007,"lineColors":["#6CBE45"],"byDayHour":{"weekday":[9,5,4,6,14,31,119,424,668,396,192,146,151,172,197,217,254,313,270,154,103,66,48,26],"friday":[15,6,6,7,15,28,112,376,459,295,201,181,186,209,258,252,313,372,367,245,163,114,91,72],"saturday":[28,14,7,4,5,9,23,52,100,129,170,184,210,214,192,185,189,194,190,156,134,86,67,57],"sunday":[32,16,9,4,5,9,17,33,73,93,146,183,194,187,164,170,141,140,123,84,53,46,35,21]}},{"id":"291","name":"Clinton-Washington Avs (G)","lat":40.688087,"lng":-73.96684,"lineColors":["#6CBE45"],"byDayHour":{"weekday":[13,3,1,1,6,20,95,383,559,312,174,149,172,188,228,262,331,407,352,201,141,101,67,34],"friday":[18,7,4,2,6,21,85,337,374,226,153,169,200,205,260,275,382,436,414,265,166,136,100,79],"saturday":[33,12,4,5,6,6,13,39,63,106,131,167,208,199,221,198,187,190,192,151,110,88,63,59],"sunday":[30,8,3,2,5,5,11,20,48,78,109,163,184,189,170,151,159,146,127,95,74,55,38,19]}},{"id":"292","name":"Fulton St (G)","lat":40.68712,"lng":-73.97537,"lineColors":["#6CBE45"],"byDayHour":{"weekday":[22,6,4,4,8,22,127,283,297,195,125,125,143,197,524,791,418,436,363,242,209,209,113,90],"friday":[23,9,5,3,8,25,120,277,275,169,128,139,182,233,600,838,470,506,413,343,258,220,193,258],"saturday":[57,17,7,4,5,8,25,44,59,82,132,151,192,252,284,282,260,272,270,238,184,174,149,204],"sunday":[60,22,8,4,2,4,18,37,44,69,100,145,182,196,219,264,245,389,296,193,124,85,87,36]}},{"id":"293","name":"Van Cortlandt Park-242 St (1)","lat":40.889248,"lng":-73.89858,"lineColors":["#EE352E"],"byDayHour":{"weekday":[11,5,7,10,48,280,535,894,665,337,216,185,182,208,231,307,314,397,270,137,99,70,43,34],"friday":[14,6,4,11,40,259,494,781,506,277,207,205,195,225,252,379,289,361,318,150,110,84,62,41],"saturday":[13,5,4,5,17,53,82,137,130,144,181,191,246,195,187,190,168,158,121,107,82,51,42,23],"sunday":[14,9,6,6,17,43,66,106,125,162,173,205,190,185,169,166,170,149,127,111,69,57,41,23]}},{"id":"294","name":"238 St (1)","lat":40.884666,"lng":-73.90087,"lineColors":["#EE352E"],"byDayHour":{"weekday":[7,4,4,9,41,134,258,609,485,227,164,133,125,155,171,173,186,162,116,74,59,49,29,19],"friday":[8,3,5,9,36,127,208,505,395,196,144,122,130,149,160,204,196,201,151,112,85,58,44,24],"saturday":[7,4,3,4,12,30,54,82,92,95,103,107,113,113,118,108,95,87,81,65,48,36,32,16],"sunday":[11,6,5,5,11,36,48,66,75,86,108,112,120,141,125,108,105,77,72,61,48,47,25,17]}},{"id":"295","name":"231 St (1)","lat":40.878857,"lng":-73.90483,"lineColors":["#EE352E"],"byDayHour":{"weekday":[12,6,7,17,73,213,460,919,830,430,314,277,275,317,357,423,395,382,270,183,138,100,56,36],"friday":[9,4,7,14,73,206,445,830,679,379,285,270,269,294,359,431,403,379,302,208,146,104,68,41],"saturday":[15,5,5,4,29,67,100,139,167,166,178,206,206,238,244,212,200,186,170,129,95,84,53,31],"sunday":[20,8,8,3,26,57,91,124,146,168,175,207,220,250,258,222,204,198,160,119,93,82,48,25]}},{"id":"296","name":"Marble Hill-225 St (1)","lat":40.87456,"lng":-73.90983,"lineColors":["#EE352E"],"byDayHour":{"weekday":[9,4,7,11,45,129,244,565,450,214,166,140,146,174,196,270,237,210,169,112,88,61,42,23],"friday":[10,3,5,9,37,122,244,529,383,195,144,137,148,173,210,284,250,198,158,114,90,81,56,26],"saturday":[13,5,5,3,10,41,63,98,103,101,102,108,109,120,126,138,109,115,93,82,71,61,37,22],"sunday":[12,8,5,4,8,25,56,88,87,90,96,106,120,130,137,134,134,120,105,82,67,48,34,20]}},{"id":"297","name":"215 St (1)","lat":40.869446,"lng":-73.915276,"lineColors":["#EE352E"],"byDayHour":{"weekday":[6,4,2,5,9,20,68,294,153,90,81,82,102,105,109,188,159,147,95,68,46,60,32,18],"friday":[9,6,4,4,7,18,60,270,122,92,73,103,75,92,95,207,155,137,87,69,66,59,28,22],"saturday":[8,4,2,2,6,7,12,30,43,36,42,42,55,78,77,120,68,53,44,26,24,33,30,18],"sunday":[7,4,3,3,5,5,14,27,43,37,50,45,68,67,65,66,46,39,36,29,28,20,18,17]}},{"id":"298","name":"207 St (1)","lat":40.86462,"lng":-73.91882,"lineColors":["#EE352E"],"byDayHour":{"weekday":[21,10,9,15,48,133,258,525,470,253,197,178,176,217,305,424,320,270,218,151,109,80,75,33],"friday":[23,15,7,15,44,123,250,528,462,268,192,194,184,232,310,402,332,258,239,160,116,98,84,48],"saturday":[24,7,9,10,30,54,95,133,134,131,140,131,134,151,172,195,160,121,116,93,92,68,60,35],"sunday":[25,16,10,10,24,52,85,108,124,129,125,153,149,177,170,175,142,131,104,97,78,58,58,38]}},{"id":"299","name":"Dyckman St (1)","lat":40.86053,"lng":-73.92554,"lineColors":["#EE352E"],"byDayHour":{"weekday":[21,12,11,18,64,164,305,695,628,335,253,220,225,268,337,336,336,279,222,162,104,73,62,37],"friday":[19,19,11,15,55,143,290,660,560,324,229,225,254,244,353,320,328,285,230,203,111,96,84,44],"saturday":[23,13,11,12,27,62,92,148,177,166,153,169,167,182,204,189,173,168,150,128,85,81,60,38],"sunday":[40,21,14,13,23,50,87,124,142,156,177,183,189,201,219,198,185,160,141,104,78,73,62,32]}},{"id":"3","name":"30 Av (N,W)","lat":40.76678,"lng":-73.92148,"lineColors":["#FCCC0A"],"byDayHour":{"weekday":[26,14,10,12,59,189,541,1378,1989,1086,598,463,433,448,599,606,580,633,485,292,185,125,94,60],"friday":[31,19,9,13,45,175,480,1151,1335,790,521,442,426,436,631,636,628,680,641,392,272,203,147,105],"saturday":[36,27,13,14,20,55,122,194,294,349,372,403,440,432,425,426,378,347,347,262,177,128,103,76],"sunday":[42,27,15,13,21,50,109,162,247,333,395,426,460,420,440,374,311,294,255,181,126,119,78,56]}},{"id":"30","name":"Prospect Av (R)","lat":40.665413,"lng":-73.992874,"lineColors":["#FCCC0A"],"byDayHour":{"weekday":[12,6,5,4,13,61,182,522,847,388,203,161,160,176,275,350,290,382,294,159,93,65,49,26],"friday":[16,5,4,6,11,58,161,442,554,271,187,164,154,181,277,367,303,395,308,192,120,80,66,49],"saturday":[20,10,5,5,5,13,35,62,91,119,138,170,169,176,151,154,149,159,147,119,80,55,50,37],"sunday":[24,14,6,4,5,14,31,47,80,114,144,148,161,151,145,122,123,115,113,65,57,46,37,12]}},{"id":"300","name":"191 St (1)","lat":40.855225,"lng":-73.92941,"lineColors":["#EE352E"],"byDayHour":{"weekday":[11,7,14,19,50,212,387,852,714,396,263,249,253,293,509,429,325,292,222,139,101,68,47,45],"friday":[11,8,14,19,51,197,376,779,619,338,259,230,245,303,577,476,343,284,257,165,126,81,66,52],"saturday":[14,8,8,10,21,69,105,178,192,192,171,194,215,215,219,196,177,154,139,128,82,65,42,45],"sunday":[22,10,12,10,19,60,82,125,168,187,196,213,216,234,236,230,162,159,136,106,79,62,40,37]}},{"id":"301","name":"181 St (1)","lat":40.849506,"lng":-73.93359,"lineColors":["#EE352E"],"byDayHour":{"weekday":[25,17,11,21,78,243,446,1030,935,533,422,409,388,439,501,531,513,514,395,259,189,113,85,61],"friday":[29,17,8,23,63,229,413,993,845,448,401,430,419,464,510,547,484,465,366,261,183,127,106,79],"saturday":[28,18,11,14,32,85,136,198,261,255,243,266,267,281,310,275,239,230,223,184,137,102,81,66],"sunday":[44,24,17,19,36,84,128,181,215,250,266,296,307,319,336,303,269,239,230,196,128,101,84,46]}},{"id":"303","name":"157 St (1)","lat":40.83404,"lng":-73.94489,"lineColors":["#EE352E"],"byDayHour":{"weekday":[22,10,11,22,78,220,432,916,915,568,424,366,356,392,452,504,469,460,349,230,159,106,80,46],"friday":[25,8,12,22,73,215,428,876,765,530,415,385,356,392,470,456,461,455,404,264,173,156,128,72],"saturday":[36,16,15,18,33,77,135,212,253,318,290,327,338,351,331,337,286,270,251,205,144,103,95,62],"sunday":[42,19,13,15,27,72,134,180,242,302,349,364,363,393,404,333,291,294,228,154,118,93,82,47]}},{"id":"304","name":"145 St (1)","lat":40.82655,"lng":-73.95036,"lineColors":["#EE352E"],"byDayHour":{"weekday":[29,16,14,24,65,210,381,821,834,538,395,360,337,361,420,410,402,412,342,223,166,123,96,55],"friday":[32,19,9,23,64,191,367,765,694,469,376,357,333,371,427,446,382,466,406,288,233,151,124,80],"saturday":[41,28,21,13,26,63,122,171,219,271,284,285,298,314,341,291,242,237,216,199,137,106,100,53],"sunday":[39,23,19,13,24,63,111,143,197,263,322,342,338,361,367,300,254,245,206,176,123,96,82,45]}},{"id":"305","name":"137 St-City College (1)","lat":40.822006,"lng":-73.953674,"lineColors":["#EE352E"],"byDayHour":{"weekday":[36,17,16,26,79,226,427,956,1122,719,513,466,550,591,632,910,736,737,635,401,257,151,104,72],"friday":[42,20,17,27,77,212,402,905,972,613,465,473,538,555,597,811,575,570,485,358,231,182,135,106],"saturday":[48,27,21,18,35,77,131,186,268,310,321,339,354,329,368,365,315,274,272,221,151,136,97,73],"sunday":[59,35,25,15,27,65,110,160,247,276,349,354,381,381,410,363,299,252,242,179,138,107,92,64]}},{"id":"306","name":"125 St (1)","lat":40.815582,"lng":-73.958374,"lineColors":["#EE352E"],"byDayHour":{"weekday":[43,17,7,10,18,69,158,394,555,348,302,276,420,407,445,563,691,1022,617,504,329,366,141,76],"friday":[60,16,12,11,14,55,147,380,437,311,278,326,386,402,436,558,623,813,619,433,324,279,176,113],"saturday":[53,26,12,9,8,20,41,74,131,180,216,265,283,311,293,318,299,300,335,233,192,160,114,80],"sunday":[51,31,19,10,8,19,39,67,115,170,233,264,312,338,341,305,287,259,248,194,172,114,109,61]}},{"id":"307","name":"116 St-Columbia University (1)","lat":40.80772,"lng":-73.96411,"lineColors":["#EE352E"],"byDayHour":{"weekday":[74,16,6,5,5,23,68,288,440,343,370,510,619,719,900,1078,1711,2072,1570,1229,1176,671,404,183],"friday":[106,27,8,8,4,25,71,287,413,395,427,579,773,900,1073,1344,1595,1742,1196,831,534,437,356,254],"saturday":[93,24,13,4,3,10,29,82,143,208,313,474,627,572,532,530,557,577,559,449,291,306,207,148],"sunday":[95,31,16,6,4,9,25,83,134,275,381,528,603,572,571,525,510,468,438,367,229,162,174,102]}},{"id":"308","name":"Cathedral Pkwy (110 St) (1)","lat":40.803967,"lng":-73.96685,"lineColors":["#EE352E"],"byDayHour":{"weekday":[48,17,9,8,14,43,157,565,988,573,440,419,461,494,590,890,903,958,780,540,396,287,196,140],"friday":[64,19,13,10,12,37,146,494,801,512,449,465,513,557,725,963,971,991,922,670,461,362,303,257],"saturday":[87,35,16,9,8,17,45,103,187,278,354,482,511,530,485,512,476,523,505,437,299,248,187,150],"sunday":[75,35,18,8,11,15,30,84,163,293,400,518,591,602,557,519,489,479,440,349,240,153,148,102]}},{"id":"309","name":"103 St (1)","lat":40.799446,"lng":-73.968376,"lineColors":["#EE352E"],"byDayHour":{"weekday":[37,8,9,10,24,66,215,779,1256,799,570,486,480,500,490,627,648,724,641,449,384,224,156,86],"friday":[40,11,10,9,20,59,177,661,923,663,509,478,469,488,537,622,651,747,759,573,415,277,220,151],"saturday":[53,15,9,7,15,24,59,135,252,356,391,430,441,455,410,400,376,405,436,400,282,209,177,134],"sunday":[74,31,13,10,12,22,43,112,219,344,442,454,492,513,470,411,382,362,337,309,240,168,151,85]}},{"id":"31","name":"25 St (R)","lat":40.660397,"lng":-73.99809,"lineColors":["#FCCC0A"],"byDayHour":{"weekday":[9,4,5,4,15,48,117,288,375,212,137,120,108,118,160,214,222,273,175,99,67,45,30,20],"friday":[12,4,5,4,13,47,106,257,304,179,124,115,118,117,174,214,239,277,202,120,80,58,56,33],"saturday":[14,9,5,4,6,14,29,42,69,88,90,107,101,98,90,98,110,108,102,73,66,43,41,16],"sunday":[17,9,7,3,6,11,18,26,53,89,88,97,112,109,116,103,104,84,66,68,49,32,18,14]}},{"id":"310","name":"96 St (1,2,3)","lat":40.79392,"lng":-73.97232,"lineColors":["#EE352E"],"byDayHour":{"weekday":[117,35,20,21,53,160,600,1972,3685,2252,1421,1257,1269,1278,1507,2143,2234,2353,2013,1280,872,651,434,266],"friday":[127,37,21,26,42,149,503,1640,2573,1665,1270,1204,1233,1337,1664,2264,2158,2377,2004,1389,925,683,623,445],"saturday":[167,58,27,19,24,61,140,319,561,769,921,1094,1176,1194,1101,1101,1110,1164,1188,990,704,582,444,326],"sunday":[186,74,40,34,32,69,175,342,576,839,1067,1224,1362,1363,1278,1207,1224,1114,1039,948,625,503,401,239]}},{"id":"311","name":"86 St (1)","lat":40.788643,"lng":-73.97622,"lineColors":["#EE352E"],"byDayHour":{"weekday":[67,20,6,5,14,51,232,896,1574,971,602,537,592,600,789,1242,1267,1307,1045,680,506,399,306,169],"friday":[89,21,12,8,15,48,198,722,1077,687,533,546,628,668,779,1312,1215,1251,1064,789,580,454,318,233],"saturday":[86,34,11,5,5,11,42,112,172,221,275,329,392,400,401,443,417,414,438,418,313,268,217,209],"sunday":[121,43,15,6,6,14,41,84,147,217,325,391,479,480,509,474,458,437,387,375,274,228,178,108]}},{"id":"312","name":"79 St (1)","lat":40.783936,"lng":-73.97992,"lineColors":["#EE352E"],"byDayHour":{"weekday":[44,12,6,6,9,34,141,597,1249,827,551,497,530,537,651,954,1144,1154,997,642,421,360,230,140],"friday":[71,26,10,8,10,31,115,488,801,611,512,480,500,565,724,989,1099,1119,1013,738,488,384,270,167],"saturday":[79,26,15,4,7,8,26,69,123,204,247,319,354,363,366,388,421,441,425,356,224,225,236,142],"sunday":[87,40,14,9,5,11,28,59,124,190,295,393,476,497,519,486,532,527,411,317,258,207,150,72]}},{"id":"313","name":"72 St (1,2,3)","lat":40.778454,"lng":-73.98197,"lineColors":["#EE352E"],"byDayHour":{"weekday":[133,40,20,15,20,93,436,1669,3339,2173,1324,1212,1251,1374,1739,2298,2768,2895,2668,1820,1365,1080,915,492],"friday":[190,54,26,15,25,83,369,1293,2110,1479,1153,1198,1312,1541,2070,2454,2807,2904,2781,2041,1421,1123,1232,853],"saturday":[262,101,39,20,15,34,103,265,499,752,964,1241,1411,1510,1504,1638,1601,1712,1783,1535,1192,1176,975,642],"sunday":[284,104,46,21,16,29,111,244,440,752,1045,1309,1581,1729,1747,1714,1792,1801,1726,1281,993,823,753,335]}},{"id":"314","name":"66 St-Lincoln Center (1)","lat":40.77344,"lng":-73.98221,"lineColors":["#EE352E"],"byDayHour":{"weekday":[78,19,6,5,11,42,130,535,1102,740,536,558,618,683,1305,2089,1722,1899,1408,951,696,858,541,246],"friday":[111,18,8,7,10,38,108,437,736,515,457,539,622,826,1404,2160,1623,1583,1299,927,700,844,839,278],"saturday":[137,36,14,7,6,18,36,88,163,226,317,402,524,563,655,735,957,746,815,562,435,603,535,408],"sunday":[140,49,8,6,7,16,32,66,133,237,327,438,585,570,620,594,733,887,655,493,370,301,281,148]}},{"id":"316","name":"50 St (1)","lat":40.761726,"lng":-73.98385,"lineColors":["#EE352E"],"byDayHour":{"weekday":[280,92,39,23,22,41,92,335,706,654,584,551,591,700,969,1284,1869,3177,2212,1337,929,1082,1005,546],"friday":[367,130,55,34,31,42,83,314,561,588,566,570,614,663,967,1260,1493,1820,1217,889,713,965,1249,685],"saturday":[354,146,77,53,40,27,46,108,255,332,424,369,411,472,498,604,887,727,642,608,507,568,1037,723],"sunday":[417,209,128,69,49,30,60,120,301,403,432,444,559,467,541,685,828,977,772,572,523,680,523,299]}},{"id":"318","name":"34 St-Penn Station (1,2,3)","lat":40.750374,"lng":-73.99106,"lineColors":["#EE352E"],"byDayHour":{"weekday":[557,159,84,58,97,878,2502,5886,7460,5018,2490,2130,1997,2218,2365,2662,3339,4875,3907,2651,2004,1851,1749,1318],"friday":[1048,222,105,55,90,797,1922,4201,4172,2847,1964,1896,1882,2177,2273,2674,3093,3944,3235,2580,2045,1833,1857,1388],"saturday":[677,308,144,95,74,141,400,539,838,1043,1247,1489,1729,1836,1870,1917,2006,2048,2005,1896,1436,1505,1625,1333],"sunday":[861,460,176,95,81,114,375,448,763,1063,1324,1578,2109,2189,2300,2109,2405,2622,2329,2072,1780,1763,1409,1153]}},{"id":"319","name":"28 St (1)","lat":40.747215,"lng":-73.99336,"lineColors":["#EE352E"],"byDayHour":{"weekday":[83,26,14,8,14,21,72,260,593,574,465,455,515,506,579,730,975,1427,1148,666,553,498,300,186],"friday":[119,51,24,13,11,21,63,218,473,495,450,466,504,500,554,689,838,989,880,556,400,346,304,251],"saturday":[138,74,48,32,14,13,23,63,165,250,292,299,337,370,347,369,365,383,402,360,238,208,214,208],"sunday":[162,110,60,42,34,16,34,58,165,237,313,321,355,336,327,330,345,379,349,259,208,178,149,99]}},{"id":"32","name":"36 St (D,N,R)","lat":40.655144,"lng":-74.00355,"lineColors":["#FF6319","#FCCC0A"],"byDayHour":{"weekday":[54,22,19,26,81,191,472,956,1189,710,524,433,419,567,783,1141,1078,1646,1079,541,311,226,140,108],"friday":[63,25,20,26,75,185,461,914,1066,609,467,412,419,574,825,1176,1071,1398,956,551,365,246,184,149],"saturday":[78,46,32,19,39,76,133,216,300,347,340,327,367,396,475,514,490,512,457,386,253,178,140,119],"sunday":[76,35,28,24,40,61,128,179,279,341,365,384,450,456,510,556,571,556,511,352,236,151,123,69]}},{"id":"320","name":"23 St (1)","lat":40.74408,"lng":-73.99566,"lineColors":["#EE352E"],"byDayHour":{"weekday":[77,31,15,8,12,30,89,342,735,558,410,386,447,481,625,901,912,1128,1063,730,539,439,301,207],"friday":[115,48,27,17,13,29,83,280,494,402,369,377,441,524,653,903,927,940,930,724,501,418,379,287],"saturday":[146,70,39,22,17,14,32,67,123,210,291,317,411,434,489,492,511,521,553,450,341,298,253,194],"sunday":[184,93,57,35,21,18,30,68,118,223,262,327,400,424,470,428,465,468,459,334,250,223,161,133]}},{"id":"321","name":"18 St (1)","lat":40.74104,"lng":-73.99787,"lineColors":["#EE352E"],"byDayHour":{"weekday":[37,14,7,6,7,14,44,186,442,307,205,202,243,306,409,561,568,752,633,413,274,215,164,89],"friday":[58,31,15,10,10,12,34,143,261,201,178,195,256,276,418,573,504,584,495,402,276,269,187,143],"saturday":[68,39,26,14,7,10,14,26,41,83,101,145,215,264,291,336,309,286,286,239,175,145,137,96],"sunday":[75,53,29,21,15,13,13,20,30,65,115,139,206,232,248,274,275,247,215,173,145,116,77,38]}},{"id":"323","name":"Christopher St-Sheridan Sq (1)","lat":40.73342,"lng":-74.00291,"lineColors":["#EE352E"],"byDayHour":{"weekday":[147,84,42,19,15,23,76,283,762,494,281,273,323,375,462,631,691,717,677,570,541,525,450,315],"friday":[213,137,72,30,21,25,58,192,449,308,262,269,359,419,568,673,729,714,649,619,523,564,609,572],"saturday":[359,280,151,78,35,11,19,34,71,119,180,236,329,425,481,538,599,530,617,597,462,463,481,492],"sunday":[510,339,209,105,46,12,22,29,57,109,174,253,362,474,468,507,562,542,507,434,418,410,334,239]}},{"id":"324","name":"Houston St (1)","lat":40.728252,"lng":-74.00536,"lineColors":["#EE352E"],"byDayHour":{"weekday":[87,30,16,12,7,17,47,212,451,386,309,319,379,459,694,1107,1527,2149,1218,683,457,388,365,213],"friday":[175,56,25,13,10,11,41,178,311,301,259,271,359,446,665,958,879,938,688,512,463,399,402,315],"saturday":[176,90,62,30,9,6,13,38,61,97,127,172,203,279,301,378,370,368,349,384,277,266,279,238],"sunday":[186,113,80,46,29,8,17,38,46,83,125,170,230,280,304,293,336,325,337,267,259,238,181,128]}},{"id":"325","name":"Canal St (1)","lat":40.722855,"lng":-74.00628,"lineColors":["#EE352E"],"byDayHour":{"weekday":[46,16,9,5,3,5,25,94,172,138,128,140,163,173,221,295,473,810,559,297,187,135,116,98],"friday":[81,31,17,11,5,7,25,82,133,105,92,122,162,176,232,297,370,410,326,213,154,130,128,140],"saturday":[100,52,32,14,9,6,7,18,29,39,63,83,113,137,153,193,217,232,223,190,134,95,98,107],"sunday":[102,71,38,20,12,7,10,14,24,48,73,82,116,131,147,186,196,202,206,152,108,78,74,57]}},{"id":"326","name":"Franklin St (1)","lat":40.71932,"lng":-74.00689,"lineColors":["#EE352E"],"byDayHour":{"weekday":[30,12,6,4,5,9,38,149,292,195,187,195,225,226,261,389,556,788,554,339,210,186,119,70],"friday":[40,14,14,6,7,9,29,121,187,141,168,172,204,231,277,329,408,466,372,256,189,144,141,130],"saturday":[57,25,13,8,5,5,7,15,27,62,97,124,149,185,176,205,189,177,187,162,136,118,105,97],"sunday":[75,31,20,8,11,6,10,14,27,57,101,128,167,193,192,191,168,175,154,154,105,91,72,46]}},{"id":"327","name":"Chambers St (1,2,3)","lat":40.715477,"lng":-74.00927,"lineColors":["#EE352E"],"byDayHour":{"weekday":[68,20,7,5,12,21,113,486,804,531,471,529,665,815,1130,1961,1943,2607,1970,1182,739,433,354,174],"friday":[114,32,16,6,14,21,88,391,499,383,356,423,535,671,1064,1728,1624,1959,1361,830,560,385,358,257],"saturday":[119,37,14,7,9,13,26,60,101,155,229,294,389,419,471,497,461,465,446,408,290,216,229,167],"sunday":[104,44,20,8,8,12,30,51,90,175,293,391,406,395,393,403,431,419,383,318,273,211,166,107]}},